City_ID,City,Lat,Lng,Max Temp,Humidity,Cloudiness,Wind Speed,Country,Date
0,kodiak,57.79,-152.4072,13.73,94,100,3.6,US,1691443779
1,olonkinbyen,70.9221,-8.7187,4.26,79,3,2.15,SJ,1691443904
2,port-aux-francais,-49.35,70.2167,3.6,81,100,16.25,TF,1691443904
3,polyarnyy,69.1989,33.4478,14.61,70,86,3.98,RU,1691443785
4,waitangi,-43.9535,-176.5597,9.34,66,100,6.03,NZ,1691443857
5,achinsk,56.2694,90.4993,15.12,62,60,1.93,RU,1691443905
6,ternate,0.8,127.4,26.44,80,57,4.37,ID,1691443905
7,isafjordur,66.0755,-23.124,10.87,71,34,2.01,IS,1691443857
8,ribeira grande,38.5167,-28.7,23.21,82,1,2.24,PT,1691443905
9,chibougamau,49.9168,-74.3659,21.79,56,75,1.54,CA,1691443791
10,port mathurin,-19.6833,63.4167,22.91,56,12,8.7,MU,1691443906
11,chuguyevka,44.1653,133.8633,15.74,78,33,1.41,RU,1691443906
12,concepcion,-36.827,-73.0498,13.89,82,0,3.09,CL,1691443906
13,ambodifotatra,-16.9833,49.85,22.89,74,61,3.26,MG,1691443906
14,lydenburg,-25.0978,30.4597,7.67,44,1,1.02,ZA,1691443906
15,iqaluit,63.7506,-68.5145,12.61,71,20,2.06,CA,1691443813
16,talnakh,69.4865,88.3972,14.56,61,98,0.71,RU,1691443907
17,weno,7.4515,151.8468,27.97,89,100,1.54,FM,1691443887
18,jiuquan,39.7432,98.5174,25.02,26,95,2.89,CN,1691443907
19,grytviken,-54.2811,-36.5092,-6.35,82,67,4.4,GS,1691443907
20,yellowknife,62.456,-114.3525,20.29,42,40,4.92,CA,1691443819
21,edinburgh of the seven seas,-37.0676,-12.3116,13.78,78,58,14.8,SH,1691443857
22,queenstown,-31.8976,26.8753,12.77,35,0,2.78,ZA,1691443908
23,badger,64.8,-147.5333,22.3,67,100,4.63,US,1691443908
24,albany,42.6001,-73.9662,23.66,90,100,1.34,US,1691443744
25,swakopmund,-22.6833,14.5333,15.47,51,0,3.13,NA,1691443908
26,al jawf,29.5,38.75,27.63,20,0,3.5,SA,1691443908
27,brewer,44.7967,-68.7614,24.61,56,100,5.66,US,1691443909
28,gebeit,21.0667,36.3167,29.86,22,3,0.08,SD,1691443909
29,iskateley,67.6803,53.1512,6.35,96,12,3.25,RU,1691443909
30,albion,42.2431,-84.753,25.66,64,75,2.06,US,1691443881
31,adamstown,-25.066,-130.1015,20.55,73,71,3.41,PN,1691443909
32,ilulissat,69.2167,-51.1,11.01,50,20,1.54,GL,1691443860
33,pacifica,37.6138,-122.4869,36.23,73,0,8.23,US,1691443861
34,eirunepe,-6.6603,-69.8736,33.52,44,93,2.0,BR,1691443716
35,levuka,50.1834,-105.4011,27.9,19,36,3.06,CA,1691443910
36,port elizabeth,-33.918,25.5701,15.16,94,0,2.57,ZA,1691443910
37,betamcherla,15.4667,78.1667,25.31,71,100,7.36,IN,1691443910
38,sisimiut,66.9395,-53.6735,8.28,65,13,1.47,GL,1691443774
39,hermanus,-34.4187,19.2345,13.78,83,0,2.31,ZA,1691443910
40,sidney,-33.8679,151.2073,11.84,90,75,3.09,AU,1691443364
41,hawaiian paradise park,19.5933,-154.9731,28.73,80,20,5.14,US,1691443800
42,hobyo,5.3505,48.5268,24.98,78,97,11.99,SO,1691443911
43,keflavik,64.0049,-22.5624,12.95,87,75,2.57,IS,1691443911
44,puttalam,8.0362,79.8283,26.62,85,100,8.85,LK,1691443911
45,klyuchi,52.2667,79.1667,16.62,49,0,1.37,RU,1691443897
46,severo-yeniseyskiy,60.3725,93.0408,10.75,87,100,1.47,RU,1691443774
47,port lincoln,-34.7333,135.8667,9.92,78,0,3.86,AU,1691443763
48,sabang,5.8933,95.3214,27.24,79,100,9.38,ID,1691443912
49,georgetown,5.4112,100.3354,26.96,83,40,2.06,MY,1691443837
50,mili,6.0815,171.735,25.2,93,100,3.82,MH,1691443912
51,crane,31.3974,-102.3501,41.3,13,34,8.77,US,1691443912
52,nova sintra,14.8667,-24.7167,22.66,77,96,6.55,CV,1691443912
53,tiksi,71.6872,128.8694,8.25,61,58,1.74,RU,1691443912
54,ancud,-41.8697,-73.8203,8.69,81,100,2.43,CL,1691443912
55,luderitz,-26.6481,15.1594,15.05,73,0,7.09,NA,1691443913
56,east london,-33.0153,27.9116,17.85,85,24,6.76,ZA,1691443913
57,bredasdorp,-34.5322,20.0403,10.06,87,0,2.34,ZA,1691443913
58,bethel,41.3712,-73.414,25.57,86,100,2.06,US,1691443913
59,filey,54.21,-0.2892,14.32,78,20,2.24,GB,1691443674
60,west island,-12.1568,96.8225,24.99,88,40,3.6,CC,1691443913
61,pisco,-13.7,-76.2167,21.03,73,75,5.66,PE,1691443914
62,antonio enes,-16.2325,39.9086,22.17,78,0,4.6,MZ,1691443914
63,saryaghash,41.45,69.1667,25.96,28,76,2.95,KZ,1691443914
64,tyul'gan,52.3405,56.166,16.86,81,0,1.72,RU,1691443914
65,puerto natales,-51.7236,-72.4875,-0.94,90,100,1.64,CL,1691443861
66,soio,-6.1349,12.3689,21.5,90,70,3.52,AO,1691443914
67,nizao,18.25,-70.2,31.37,65,35,6.72,DO,1691443915
68,karapinar,37.716,33.5506,26.1,31,0,0.66,TR,1691443915
69,ilhabela,-23.7781,-45.3581,24.58,54,3,1.38,BR,1691443915
70,blackmans bay,-43.0167,147.3167,5.85,92,27,2.61,AU,1691443915
71,colonia,50.9333,6.95,15.53,78,20,1.54,DE,1691443710
72,talitsy,56.5289,42.3344,17.95,78,0,2.45,RU,1691443916
73,hirara,24.8,125.2833,27.15,89,20,6.69,JP,1691443882
74,saipan,15.1355,145.701,26.47,100,40,0.0,MP,1691443916
75,juegang,32.3174,121.1855,27.73,84,91,3.68,CN,1691443916
76,new norfolk,-42.7826,147.0587,6.51,95,18,1.41,AU,1691443916
77,gujo,35.7369,136.9585,24.44,92,100,0.61,JP,1691443917
78,utrik,11.2278,169.8474,28.25,79,74,9.06,MH,1691443871
79,changping,40.2186,116.2197,23.8,92,91,0.57,CN,1691443917
80,ushuaia,-54.8,-68.3,1.81,75,0,1.54,AR,1691443763
81,la passe,45.5549,-0.8967,19.13,76,2,3.81,FR,1691443917
82,makubetsu,45.3714,141.8211,17.68,91,99,4.02,JP,1691443917
83,vila franca do campo,37.7167,-25.4333,23.23,80,67,1.71,PT,1691443796
84,lazaro cardenas,17.9583,-102.2,32.08,61,7,5.8,MX,1691443865
85,qacha's nek,-30.1154,28.6894,6.58,34,0,0.98,LS,1691443918
86,papatowai,-46.5619,169.4708,5.34,82,100,6.54,NZ,1691443918
87,puerto ayora,-0.7393,-90.3518,29.98,86,86,3.58,EC,1691443918
88,college,64.8569,-147.8028,22.34,70,75,4.63,US,1691443791
89,al muharraq,26.2572,50.6119,36.98,56,0,2.57,BH,1691443918
90,karatas,36.582,35.3701,28.08,74,3,3.0,TR,1691443919
91,vadso,70.0744,29.7487,18.49,82,0,1.54,NO,1691443789
92,dalandzadgad,43.5708,104.425,22.77,40,13,3.76,MN,1691443919
93,puerto lumbreras,37.5633,-1.8097,24.99,81,10,1.78,ES,1691443919
94,labytnangi,66.6572,66.4183,15.61,93,1,1.17,RU,1691443919
95,hadibu,12.65,54.0333,25.71,81,46,8.76,YE,1691443919
96,petropavlovsk-kamchatsky,53.0452,158.6483,13.33,82,0,3.0,RU,1691443919
97,afaahiti,-17.75,-149.2833,27.93,74,93,4.84,PF,1691443863
98,bardai,11.65,7.2333,22.48,86,87,3.92,NG,1691443762
99,egilsstadir,65.2653,-14.3948,8.95,71,0,3.6,IS,1691443920
100,fort bragg,35.139,-79.006,35.08,50,20,5.66,US,1691443920
101,kristiansund,63.1115,7.732,12.03,93,75,4.12,NO,1691443920
102,kirakira,-10.4544,161.9205,25.38,89,100,3.24,SB,1691443920
103,ploneour-lanvern,47.9,-4.2833,15.18,82,0,1.54,FR,1691443920
104,oud-turnhout,51.32,4.9823,15.94,89,77,3.37,BE,1691443921
105,at taj,24.2049,23.2857,31.55,26,0,8.4,LY,1691443921
106,tura,25.5198,90.2201,23.52,99,100,0.69,IN,1691443865
107,onega,63.9061,38.1404,16.14,73,1,5.08,RU,1691443921
108,lebu,-37.6167,-73.65,11.05,82,100,2.73,CL,1691443921
109,mahina,-17.5065,-149.489,28.87,65,20,3.6,PF,1691443921
110,bukowno,50.2647,19.4596,14.91,98,100,5.46,PL,1691443922
111,la'ie,21.6477,-157.9253,29.98,74,38,4.02,US,1691443656
112,selfoss,63.9331,-20.9971,11.69,85,77,3.16,IS,1691443922
113,tadine,-21.55,167.8833,20.6,69,3,4.22,NC,1691443922
114,nevel'sk,46.6733,141.8633,16.02,74,100,4.62,RU,1691443922
115,longyearbyen,78.2186,15.6401,7.91,87,75,3.09,SJ,1691443922
116,bella vista,36.4295,-94.2316,31.96,50,0,4.63,US,1691443923
117,invercargill,-46.4,168.35,5.57,84,93,1.34,NZ,1691443764
118,portland,45.5234,-122.6762,29.96,53,40,1.79,US,1691443590
119,novyy buh,47.6931,32.5216,19.97,59,0,3.31,UA,1691443923
120,st. john's,47.5649,-52.7093,17.6,93,100,8.75,CA,1691443671
121,alsozsolca,48.0698,20.8805,13.32,85,95,1.45,HU,1691443923
122,stanley,54.868,-1.6985,13.21,81,20,4.63,GB,1691443924
123,bor,56.3567,44.0669,18.96,77,0,2.41,RU,1691443924
124,summerland,49.5998,-119.6691,30.69,38,75,4.63,CA,1691443924
125,andergrove,-21.0833,149.1833,17.03,80,17,5.72,AU,1691443925
126,margaret river,-33.95,115.0667,15.31,88,98,9.81,AU,1691443926
127,tazovsky,67.4667,78.7,12.48,80,20,2.63,RU,1691443926
128,anadyr,64.75,177.4833,11.28,93,75,6.71,RU,1691443775
129,tolanaro,-25.0319,46.9987,18.04,100,75,5.14,MG,1691443927
130,palu,-0.8917,119.8707,23.58,94,74,1.2,ID,1691443927
131,arica,-18.475,-70.3042,21.75,68,0,5.66,CL,1691443927
132,walvis bay,-22.9575,14.5053,15.53,67,0,1.03,NA,1691443927
133,keelakarai,9.2333,78.7833,27.89,76,98,2.58,IN,1691443928
134,amasra,41.7463,32.3863,22.47,83,2,2.78,TR,1691443928
135,albertina,-22.2008,-46.6158,19.02,35,3,0.18,BR,1691443928
136,izhevsk,56.85,53.2333,18.4,81,57,2.82,RU,1691443718
137,tralee,52.2704,-9.7026,13.35,94,100,2.11,IE,1691443928
138,contamana,-7.3333,-75.0167,35.04,36,89,2.34,PE,1691443928
139,inarajan village,13.2736,144.7484,27.44,96,91,1.69,GU,1691443929
140,krasnogvardeyskoye,45.8456,41.5186,26.37,52,1,3.0,RU,1691443929
141,codrington,-38.2667,141.9667,4.99,94,6,2.8,AU,1691443929
142,challapata,-18.9,-66.7667,11.39,23,0,2.12,BO,1691443929
143,sinan,34.8262,126.1086,26.06,87,0,2.97,KR,1691443929
144,quincy,42.2529,-71.0023,23.46,88,100,4.63,US,1691443890
145,jamestown,42.097,-79.2353,22.77,88,100,4.47,US,1691443863
146,cambebba,-3.6209,-38.8291,27.17,71,88,6.49,BR,1691443930
147,vorkuta,67.5,64.0,11.4,94,25,3.96,RU,1691443866
148,summerside,46.3959,-63.7876,18.59,77,75,5.66,CA,1691443930
149,gandi,12.9636,5.7434,25.62,80,92,4.37,NG,1691443930
150,humpolec,49.5415,15.3593,12.27,84,99,6.57,CZ,1691443931
151,tbeng meanchey,13.8167,104.9667,23.48,95,100,0.84,KH,1691443931
152,ciudad bolivar,8.1222,-63.5497,32.18,55,79,0.81,VE,1691443931
153,faya-largeau,17.9257,19.1043,32.68,44,77,3.83,TD,1691443931
154,udachny,66.4167,112.4,14.14,54,98,2.02,RU,1691443931
155,aasiaat,68.7098,-52.8699,4.04,74,16,3.64,GL,1691443931
156,westport,41.1415,-73.3579,26.46,84,100,4.63,US,1691443808
157,porto novo,6.4965,2.6036,24.51,86,39,3.51,BJ,1691443932
158,torghay,49.6339,63.4981,22.79,59,4,4.18,KZ,1691443932
159,tabalah,19.95,42.4,31.58,20,37,4.59,SA,1691443932
160,manokwari,-0.8667,134.0833,24.5,82,75,1.88,ID,1691443834
161,manismata,-2.4667,111.0333,23.03,94,100,1.68,ID,1691443933
162,chonchi,-42.6128,-73.8092,12.56,84,99,0.78,CL,1691443783
163,rechka-vydrino,51.485,104.8461,12.64,98,94,1.85,RU,1691443933
164,fale old settlement,-9.3852,-171.2468,28.06,70,7,6.56,TK,1691443933
165,kaiapoi,-43.3783,172.6401,6.42,85,52,3.6,NZ,1691443933
166,tindouf,27.6711,-8.1474,39.25,16,40,6.17,DZ,1691443934
167,puerto ayacucho,5.6639,-67.6236,28.81,80,48,1.34,VE,1691443934
168,al kharijah,25.4514,30.5464,34.2,14,6,2.1,EG,1691443934
169,nadym,65.5333,72.5167,14.86,71,0,5.1,RU,1691443870
170,punta arenas,-53.15,-70.9167,1.78,86,100,2.25,CL,1691443933
171,hamilton,39.1834,-84.5333,26.05,86,75,5.14,US,1691443934
172,praia da vitoria,38.7333,-27.0667,24.14,83,40,2.88,PT,1691443771
173,alice springs,-23.7,133.8833,3.75,87,3,0.0,AU,1691443897
174,gamba,-2.65,10.0,21.74,86,75,1.96,GA,1691443935
175,christchurch,-43.5333,172.6333,6.34,83,41,3.6,NZ,1691443377
176,badiyah,22.45,58.8,30.16,51,2,2.57,OM,1691443935
177,thompson,55.7435,-97.8558,19.09,55,75,3.6,CA,1691443935
178,baoshan,46.5586,131.4244,18.59,96,91,1.22,CN,1691443936
179,tamanrasset,22.785,5.5228,30.95,20,20,2.57,DZ,1691443936
180,antsiranana,-12.2787,49.2917,22.77,69,44,6.62,MG,1691443936
181,quellon,-43.1167,-73.6167,11.14,66,0,2.06,CL,1691443934
182,cuyahoga falls,41.1339,-81.4846,21.35,90,100,4.63,US,1691443642
183,salinas,36.6777,-121.6555,32.45,62,0,7.72,US,1691443649
184,tchibanga,-2.85,11.0333,20.43,84,85,2.12,GA,1691443936
185,vilyuchinsk,52.9306,158.4028,14.15,70,0,3.75,RU,1691443936
186,vorgashor,67.5833,63.95,11.71,95,26,4.43,RU,1691443683
187,harstad,68.799,16.5293,16.56,100,100,4.02,NO,1691443937
188,guacimo,10.2104,-83.6807,28.69,95,100,0.29,CR,1691443937
189,embarcacion,-23.209,-64.096,24.01,58,8,3.59,AR,1691443937
190,la ronge,55.1001,-105.2842,21.12,46,75,5.14,CA,1691443937
191,turpan,42.9333,89.1667,35.93,20,97,2.82,CN,1691443937
192,karlivka,49.4567,35.1295,19.06,66,0,3.23,UA,1691443938
193,haiku-pauwela,20.9219,-156.3051,30.09,57,20,13.38,US,1691443797
194,vanadzor,40.8046,44.4939,19.09,65,0,0.74,AM,1691443938
195,nizhnyaya poyma,56.1622,97.1933,14.26,89,100,1.62,RU,1691443938
196,itoman,26.1247,127.6694,27.21,92,75,10.8,JP,1691443895
197,arraial do cabo,-22.9661,-42.0278,21.98,83,0,3.6,BR,1691443939
198,taltal,-25.4,-70.4833,15.65,81,81,3.6,CL,1691443820
199,saint-joseph,-21.3667,55.6167,20.21,77,79,6.77,RE,1691443939
200,yuzhno-kurilsk,44.0306,145.8556,15.1,98,100,4.22,RU,1691443868
201,saldanha,-33.0117,17.9442,13.03,92,0,3.15,ZA,1691443939
202,abeokuta,7.15,3.35,22.78,97,43,2.22,NG,1691443940
203,mongo,12.1844,18.693,23.26,91,97,1.76,TD,1691443940
204,jaffa,32.0504,34.7522,28.38,76,20,1.54,IL,1691443940
205,geraldton,-28.7667,114.6,17.23,88,100,5.66,AU,1691443940
206,tyrnyauz,43.3828,42.9183,17.82,69,3,2.17,RU,1691443940
207,bela,25.9333,81.9833,27.51,73,100,5.1,IN,1691443941
208,santa rosa de copan,14.7667,-88.7833,27.64,57,75,2.57,HN,1691443941
209,villa gesell,-37.2639,-56.973,6.7,65,6,3.77,AR,1691443941
210,avarua,-21.2078,-159.775,24.03,69,84,2.57,CK,1691443767
211,sao jose da coroa grande,-8.8978,-35.1478,24.13,81,22,4.93,BR,1691443941
212,parkes,-33.1333,148.1833,5.75,86,5,1.62,AU,1691443941
213,quelimane,-17.8786,36.8883,21.97,83,20,1.03,MZ,1691443942
214,kapa'a,22.0752,-159.319,28.99,86,100,5.14,US,1691443942
215,khandyga,62.6667,135.6,15.6,38,9,3.71,RU,1691443815
216,nkove,-7.95,30.85,23.56,52,25,2.21,TZ,1691443942
217,malpica,43.3228,-8.8105,21.09,76,0,6.69,ES,1691443942
218,agat village,13.3886,144.6585,27.42,90,40,1.54,GU,1691443942
219,monterrey,25.6667,-100.3167,38.18,19,1,5.02,MX,1691443359
220,howrah,22.5892,88.3103,26.0,94,100,3.09,IN,1691443943
221,ust-tsilma,65.441,52.1498,9.65,94,43,2.12,RU,1691443943
222,menaka,15.9182,2.4022,34.3,42,7,4.09,ML,1691443943
223,safford,32.834,-109.7076,39.3,28,0,7.2,US,1691443943
224,olinda,-8.0089,-34.8553,25.85,83,75,4.12,BR,1691443927
225,sitka,57.0531,-135.33,17.94,63,100,3.6,US,1691443876
226,yorkton,51.2167,-102.4677,24.91,44,40,3.6,CA,1691443944
227,puerto baquerizo moreno,-0.9,-89.6,26.55,69,75,8.75,EC,1691443788
228,ust-nera,64.5667,143.2,10.22,47,97,2.05,RU,1691443944
229,pacific grove,36.6177,-121.9166,27.42,82,0,7.72,US,1691443944
230,cozumel,20.5083,-86.9458,34.04,76,40,5.14,MX,1691443924
231,mbeya,-8.9,33.45,11.61,84,27,2.76,TZ,1691443944
232,port alfred,-33.5906,26.891,15.66,94,6,0.45,ZA,1691443944
233,carnarvon,-24.8667,113.6333,19.68,80,10,2.02,AU,1691443766
234,hotan,37.0997,79.9269,19.97,64,100,4.86,CN,1691443945
235,saint-francois,46.4154,3.9054,14.69,72,0,0.0,FR,1691443945
236,rionero in vulture,40.9257,15.67,16.52,74,78,1.57,IT,1691443945
237,whitehorse,60.7161,-135.0538,23.9,42,75,4.63,CA,1691443945
238,midvagur,62.0511,-7.1939,10.46,81,100,4.12,FO,1691443945
239,sandy hills,40.5811,-111.8508,30.85,29,0,5.66,US,1691443946
240,zarasai,55.7333,26.25,13.71,98,100,6.87,LT,1691443946
241,namibe,-15.1961,12.1522,17.9,88,47,2.2,AO,1691443946
242,atafu village,-8.5421,-172.5159,28.12,70,10,6.09,TK,1691443946
243,m'sila,35.7058,4.5419,29.15,40,0,5.27,DZ,1691443946
244,chinde,26.8418,88.0763,18.76,96,100,0.54,NP,1691443947
245,vung tau,10.346,107.0843,26.43,87,9,5.84,VN,1691443947
246,mount isa,-20.7333,139.5,7.87,81,100,0.0,AU,1691443871
247,al muwayh,22.4333,41.7583,27.65,21,9,5.38,SA,1691443948
248,yatou,37.15,122.3833,23.73,90,93,3.03,CN,1691443948
249,breves,-1.6822,-50.4803,28.69,58,94,1.59,BR,1691443948
250,mil'kovo,55.6078,37.7956,23.27,61,0,6.62,RU,1691443788
251,kiwira,-9.1667,33.5333,12.92,91,45,1.17,TZ,1691443949
252,aykhal,66.0,111.5,16.06,49,100,2.2,RU,1691443949
253,yeppoon,-23.1333,150.7333,12.88,81,9,4.93,AU,1691443949
254,shigony,53.3875,48.6777,19.42,60,0,3.05,RU,1691443949
255,trairi,-3.2778,-39.2689,25.86,81,60,7.12,BR,1691443950
256,constantia,44.1833,28.65,20.39,51,0,2.47,RO,1691443950
257,papao,-17.75,-149.55,28.82,78,64,5.1,PF,1691443865
258,covington,39.0837,-84.5086,26.24,82,75,5.14,US,1691443950
259,acajutla,13.5928,-89.8275,29.59,73,100,1.66,SV,1691443950
260,sinaloa de leyva,25.8333,-108.2333,36.75,30,0,4.68,MX,1691443951
261,khanty-mansiysk,61.0042,69.0019,16.06,72,0,0.0,RU,1691443951
262,camana,-16.6228,-72.7111,18.3,79,55,2.85,PE,1691443951
263,enewetak,11.3474,162.3373,26.3,87,100,5.45,MH,1691443951
264,ardakan,32.31,54.0175,29.93,27,7,3.83,IR,1691443951
265,gobabis,-22.45,18.9667,12.36,37,0,4.86,NA,1691443952
266,juneau,58.3019,-134.4197,18.0,100,100,4.63,US,1691443806
267,lehre,52.3333,10.6667,15.42,75,40,6.17,DE,1691443952
268,revda,56.801,59.9303,13.81,96,18,1.26,RU,1691443952
269,flying fish cove,-10.4217,105.6791,23.82,94,100,5.14,CX,1691443952
270,kalush,49.0119,24.3731,14.86,70,59,3.0,UA,1691443953
271,iguaba grande,-22.8392,-42.2289,22.02,78,0,3.6,BR,1691443953
272,hithadhoo,-0.6,73.0833,27.37,74,100,1.59,MV,1691443869
273,beau vallon,-20.4189,57.6953,22.13,60,75,4.63,MU,1691443953
274,nogliki,51.8333,143.1667,18.52,60,20,6.65,RU,1691443953
275,greymouth,-42.4667,171.2,6.85,87,99,2.54,NZ,1691443953
276,san antonio de pale,-1.4014,5.6325,22.9,79,53,3.94,GQ,1691443764
277,kiffa,16.6166,-11.4045,35.4,24,4,5.23,MR,1691443954
278,morrope,-6.5417,-80.0111,24.06,65,33,6.41,PE,1691443954
279,hohhot,40.8106,111.6522,17.16,82,20,1.0,CN,1691443954
280,beroroha,-21.6667,45.1667,17.93,72,39,1.27,MG,1691443954
281,kolonia town,6.964,158.206,28.06,100,100,1.54,FM,1691443954
282,lagoa,39.05,-27.9833,23.05,78,24,3.09,PT,1691443955
283,de aar,-30.6497,24.0123,13.94,29,0,2.32,ZA,1691443955
284,solone,48.2081,34.8721,22.0,54,9,3.88,UA,1691443955
285,el dorado,38.7666,-120.5177,35.23,21,0,0.89,US,1691443955
286,jincheng,35.5022,112.8328,22.86,78,100,1.21,CN,1691443955
287,argostolion,38.1811,20.489,23.75,66,0,2.69,GR,1691443956
288,mopti,14.6667,-4.0,28.02,78,20,3.09,ML,1691443956
289,ketchikan,55.3422,-131.6461,16.26,94,100,5.14,US,1691443832
290,nalut,30.3333,10.85,29.78,22,0,6.48,LY,1691443956
291,ambon,-3.6954,128.1814,26.6,95,47,7.11,ID,1691443956
292,makokou,0.5738,12.8642,22.87,78,95,0.89,GA,1691443956
293,wailua homesteads,22.0669,-159.378,28.24,86,100,5.14,US,1691443957
294,fomboni,-12.28,43.7425,24.96,69,4,4.58,KM,1691443957
295,laguna,38.421,-121.4238,40.19,27,0,3.09,US,1691443871
296,tual,-5.6667,132.75,25.49,77,55,10.27,ID,1691443765
297,usogorsk,63.4106,48.6872,11.58,95,3,2.08,RU,1691443957
298,chikwawa,-16.0335,34.8009,19.42,76,0,1.12,MW,1691443957
299,bilibino,68.0546,166.4372,4.51,77,68,2.07,RU,1691443763
300,baishishan,43.5833,127.5667,17.07,96,100,1.35,CN,1691443958
301,san patricio,28.017,-97.5169,38.42,43,0,8.22,US,1691443958
302,cambria,35.5641,-121.0808,35.06,65,25,3.63,US,1691443678
303,taruma,-22.7467,-50.5772,24.02,39,2,0.18,BR,1691443958
304,lompoc,34.6391,-120.4579,26.03,75,100,3.6,US,1691443773
305,bushehr,28.9684,50.8385,33.05,58,0,0.0,IR,1691443958
306,afif,23.9065,42.9172,29.4,13,3,4.71,SA,1691443958
307,tibro,58.4245,14.1616,16.85,89,100,3.32,SE,1691443959
308,kununurra,-15.7667,128.7333,16.99,51,12,2.06,AU,1691443753
309,pontes e lacerda,-15.2261,-59.3353,30.35,27,1,1.25,BR,1691443959
310,sao joaquim,-28.2939,-49.9317,12.39,98,100,0.36,BR,1691443959
311,brisas de zicatela,15.8369,-97.0419,32.29,58,20,4.12,MX,1691443874
312,richards bay,-28.783,32.0377,17.09,93,4,1.96,ZA,1691443498
313,ribeira brava,32.65,-17.0667,25.0,78,49,3.23,PT,1691443959
314,rakops,-21.0167,24.3333,15.78,42,3,2.72,BW,1691443959
315,minot air force base,48.4209,-101.3391,27.77,38,0,4.12,US,1691443960
316,salym,60.0625,71.4789,14.89,68,0,2.14,RU,1691443960
317,petukhovo,55.0692,67.9019,17.0,60,100,2.2,RU,1691443960
318,mata-utu,-13.2816,-176.1745,27.57,75,12,3.34,WF,1691443900
319,uturoa,-16.7333,-151.4333,25.7,76,89,3.65,PF,1691443768
320,muynoq,43.7683,59.0214,24.49,55,0,0.98,UZ,1691443960
321,rio grande,-32.035,-52.0986,13.06,67,24,6.75,BR,1691443776
322,auki,-8.7676,160.7034,26.12,85,99,1.61,SB,1691443961
323,santo antonio,-6.3106,-35.4789,22.88,88,38,5.03,BR,1691443961
324,thinadhoo,0.5333,72.9333,27.74,74,97,2.57,MV,1691443961
325,saint-pierre,-21.3393,55.4781,20.87,78,75,9.26,RE,1691443793
326,ad dabbah,18.05,30.95,30.1,55,71,3.44,SD,1691443902
327,santa terezinha,-29.9002,-50.0904,15.43,87,100,4.76,BR,1691443788
328,sao vicente,-23.9631,-46.3919,32.1,63,2,1.03,BR,1691443775
329,nuuk,64.1835,-51.7216,6.34,87,20,2.68,GL,1691443875
330,okha,53.5739,142.9478,18.79,66,7,3.57,RU,1691443866
331,lihue,21.9789,-159.3672,28.58,83,100,5.14,US,1691443962
332,tapes,-30.6733,-51.3958,13.5,78,57,5.97,BR,1691443962
333,mount pearl,47.5166,-52.7813,16.64,93,100,8.75,CA,1691443962
334,katsuura,35.1333,140.3,26.56,89,100,3.54,JP,1691443793
335,laascaanood,8.4774,47.3597,24.88,54,20,13.04,SO,1691443962
336,ciudad acuna,29.3232,-100.9522,42.16,24,0,6.17,MX,1691443962
337,cockburn town,21.4612,-71.1419,28.88,87,6,8.89,TC,1691443927
338,pudozh,61.8099,36.5345,21.01,90,0,3.25,RU,1691443963
339,batyrevo,55.0675,47.6111,18.65,69,0,1.87,RU,1691443963
340,hammerfest,70.6634,23.6821,15.25,94,75,3.6,NO,1691443963
341,jaciara,-15.9653,-54.9683,30.48,28,8,1.55,BR,1691443963
342,noyabrsk,63.1994,75.4507,17.11,63,97,2.81,RU,1691443963
343,pont rouge,48.8833,-72.0825,22.16,75,100,3.61,CA,1691443898
344,lerwick,60.1545,-1.1494,9.0,74,88,5.09,GB,1691443783
345,bonnyville,54.2668,-110.735,21.62,39,73,2.56,CA,1691443869
346,marsa alam,25.0757,34.8918,34.21,26,0,2.52,EG,1691443882
347,woolgoolga,-30.1106,153.2007,12.93,79,41,5.2,AU,1691443964
348,smithers,54.7804,-127.1743,26.18,36,75,5.14,CA,1691443964
349,reggane,26.7158,0.1714,38.05,9,0,4.46,DZ,1691443964
350,sao gabriel da cachoeira,-0.1303,-67.0892,25.98,82,92,1.16,BR,1691443964
351,larne,54.85,-5.8167,14.42,96,20,2.92,GB,1691443965
352,pallasovka,50.05,46.8833,24.45,40,0,3.11,RU,1691443965
353,qaqortoq,60.7167,-46.0333,6.02,83,16,2.16,GL,1691443965
354,chirpan,42.2,25.3333,24.13,42,19,2.73,BG,1691443965
355,bovalino,38.149,16.174,24.94,75,0,5.19,IT,1691443965
356,dudinka,69.4058,86.1778,14.79,71,82,2.77,RU,1691443862
357,fortuna,40.5982,-124.1573,22.18,81,75,6.69,US,1691443769
358,nasiriyah,31.0521,46.261,36.57,14,0,4.26,IQ,1691443884
359,jinchang,38.4953,102.1739,22.67,46,41,1.71,CN,1691443966
360,nemuro,43.3236,145.575,15.08,98,100,5.69,JP,1691443966
361,praia,14.9215,-23.5087,26.3,78,75,5.66,CV,1691443966
362,wajir,1.7471,40.0573,16.98,67,40,4.63,KE,1691443966
363,sri dungargarh,28.0833,74.0167,28.08,68,33,10.47,IN,1691443967
364,sucua,-2.4667,-78.1667,29.41,57,40,2.06,EC,1691443967
365,dingcheng,32.1272,115.0394,23.28,92,1,3.52,CN,1691443967
366,nea alikarnassos,35.3333,25.1667,25.82,77,0,2.57,GR,1691443967
367,olyokminsk,60.3736,120.4264,18.34,81,49,1.14,RU,1691443967
368,kuta,-8.7233,115.1723,22.97,94,20,4.12,ID,1691443967
369,nyurba,63.2842,118.3319,16.64,68,8,2.65,RU,1691443968
370,lokhvytsya,50.3678,33.2602,17.36,77,0,2.43,UA,1691443968
371,urumqi,43.801,87.6005,24.53,44,0,3.0,CN,1691443968
372,holualoa,19.6228,-155.9522,29.93,61,20,5.66,US,1691443968
373,aripuana,-9.1667,-60.6333,36.54,27,76,1.04,BR,1691443783
374,pandan,14.0453,124.1694,27.6,83,12,4.3,PH,1691443968
375,galliano,29.4422,-90.2992,37.22,46,0,4.12,US,1691443968
376,er regueb,34.8593,9.7865,25.92,55,0,2.79,TN,1691443969
377,iwaki,37.05,140.8833,27.23,94,97,1.22,JP,1691443969
378,tome acu,-2.4189,-48.1522,27.73,68,100,1.71,BR,1691443969
379,caldwell,43.6629,-116.6874,27.64,46,0,3.09,US,1691443772
380,ripoll,42.2006,2.1903,19.21,77,0,0.45,ES,1691443970
381,happy valley-goose bay,53.3168,-60.3315,17.17,67,75,3.09,CA,1691443970
382,as samawah,31.332,45.2944,36.07,15,0,4.91,IQ,1691443970
383,abong mbang,3.9833,13.1833,19.5,99,100,1.16,CM,1691443970
384,lyantor,61.6195,72.1555,17.12,59,4,3.59,RU,1691443971
385,cookeville,36.1628,-85.5016,28.69,78,20,4.12,US,1691443891
386,lubao,14.9167,120.55,28.04,90,57,2.29,PH,1691443971
387,qusmuryn,52.4503,64.6311,21.1,55,94,2.28,KZ,1691443971
388,agua dulce,18.1333,-94.1333,29.88,71,12,4.54,MX,1691443972
389,crieff,56.3727,-3.8389,13.41,91,11,2.49,GB,1691443972
390,tommot,58.9564,126.2925,17.35,78,38,0.65,RU,1691443972
391,ondjiva,-17.0667,15.7333,16.02,33,0,0.51,AO,1691443972
392,balkanabat,39.5108,54.3671,32.51,30,69,2.64,TM,1691443972
393,vernon,50.2581,-119.2691,32.18,27,25,1.03,CA,1691443812
394,karratha,-20.7377,116.8463,19.95,54,2,4.26,AU,1691443888
395,karoi,-16.8099,29.6925,13.88,71,29,1.44,ZW,1691443973
396,kapuskasing,49.4169,-82.4331,25.05,50,75,4.12,CA,1691443973
397,anantapur,14.6833,77.6,25.27,72,99,7.79,IN,1691443973
398,lugovoy,42.9472,72.7644,20.84,49,77,3.4,KZ,1691443973
399,farmville,37.3021,-78.3919,32.32,74,40,3.6,US,1691443756
400,port macquarie,-31.4333,152.9167,9.94,82,18,3.31,AU,1691443973
401,siuna,13.7332,-84.7773,29.34,72,100,2.66,NI,1691443974
402,shuangjiang,26.1547,109.7138,22.35,96,6,0.63,CN,1691443974
403,kingston,17.997,-76.7936,34.02,64,27,0.89,JM,1691443930
404,marquette,46.5333,-87.6335,25.43,60,34,2.24,US,1691443974
405,al kiswah,33.3572,36.2428,23.27,44,0,3.16,SY,1691443974
406,derbent,42.0678,48.2899,27.2,63,0,0.57,RU,1691443974
407,souillac,-20.5167,57.5167,22.21,60,75,4.63,MU,1691443975
408,urupes,-21.2017,-49.29,31.63,27,7,0.6,BR,1691443975
409,talodi,10.6325,30.3797,21.92,94,86,1.08,SD,1691443975
410,bereznik,62.8551,42.7072,14.04,82,0,2.42,RU,1691443787
411,mangrol,21.1167,70.1167,26.68,85,100,8.56,IN,1691443783
412,puri,19.8,85.85,27.29,73,100,4.53,IN,1691443975
413,khovd,48.0056,91.6419,20.12,41,100,1.2,MN,1691443975
414,fisterra,42.9049,-9.2629,22.64,72,0,7.33,ES,1691443976
415,anloga,5.7947,0.8973,24.92,87,65,6.22,GH,1691443976
416,ardahan,41.1087,42.7022,13.84,72,0,0.89,TR,1691443976
417,masterton,-40.9597,175.6575,9.38,95,100,1.43,NZ,1691443891
418,mizdah,31.4451,12.9801,23.86,59,0,3.1,LY,1691443976
419,tsiombe,-25.3,45.4833,18.33,79,0,1.53,MG,1691443976
420,fortaleza,-3.7227,-38.5247,27.34,78,40,8.23,BR,1691443752
421,hasaki,35.7333,140.8333,29.06,86,97,3.52,JP,1691443977
422,tocopilla,-22.092,-70.1979,20.86,68,20,4.39,CL,1691443749
423,copiapo,-27.3667,-70.3333,13.83,38,40,2.99,CL,1691443799
424,xai-xai,-25.0519,33.6442,17.68,85,0,2.64,MZ,1691443977
425,katabu,-4.9333,122.5167,21.34,95,2,1.87,ID,1691443977
426,cabedelo,-6.9811,-34.8339,25.37,85,1,6.35,BR,1691443978
427,boca do acre,-8.7522,-67.3978,33.03,38,90,0.28,BR,1691443978
428,umarkot,25.3616,69.7362,27.94,72,72,10.77,PK,1691443978
429,akureyri,65.6835,-18.0878,15.96,55,0,2.06,IS,1691443978
430,queimadas,-10.9783,-39.6264,24.07,62,87,4.35,BR,1691443978
431,scarborough,54.2797,-0.4044,14.25,79,18,1.79,GB,1691443978
432,banda aceh,5.5577,95.3222,25.71,81,100,5.43,ID,1691443978
433,prince albert,53.2001,-105.7677,21.97,56,75,1.54,CA,1691443708
434,tara,56.8944,74.371,14.61,84,33,1.78,RU,1691443979
435,harper,4.375,-7.7169,24.67,88,95,4.54,LR,1691443800
436,noumea,-22.2763,166.4572,20.56,99,81,4.18,NC,1691443521
437,hami,42.8,93.45,33.19,14,98,2.62,CN,1691443979
438,dzilam gonzalez,21.2833,-88.9333,33.0,58,17,5.45,MX,1691443979
439,kunming,25.0389,102.7183,16.96,100,100,2.0,CN,1691443980
440,molteno,-31.3968,26.3625,10.34,38,0,2.54,ZA,1691443980
441,sao felix do xingu,-6.6447,-51.995,29.98,34,11,0.74,BR,1691443980
442,sur,22.5667,59.5289,30.86,58,3,4.72,OM,1691443980
443,palikir - national government center,6.9248,158.1611,27.47,100,100,1.54,FM,1691443980
444,huancavelica,-12.7667,-74.9833,8.56,52,84,3.8,PE,1691443980
445,thohoyandou,-22.9456,30.485,14.88,32,21,1.36,ZA,1691443980
446,chadan,51.2833,91.5833,14.06,95,99,0.58,RU,1691443981
447,yutsa,43.9564,43.0128,22.61,55,0,3.49,RU,1691443981
448,turkmenbasy,40.0222,52.9552,26.43,61,0,3.09,TM,1691443981
449,coquimbo,-29.9533,-71.3436,14.85,82,100,3.09,CL,1691443981
450,nurmes,63.5421,29.1397,21.75,81,1,5.43,FI,1691443981
451,guangming,45.3333,122.7833,16.94,92,93,2.21,CN,1691443982
452,luena,-11.7833,19.9167,15.58,42,0,1.83,AO,1691443982
453,newman,37.3138,-121.0208,40.03,9,0,4.88,US,1691443900
454,along,28.1667,94.7667,24.13,99,98,0.36,IN,1691443982
455,campo verde,-20.4167,-54.0667,27.57,31,5,2.09,BR,1691443982
456,cambados,42.5122,-8.8131,26.55,57,0,4.09,ES,1691443982
457,san buenaventura,27.0833,-101.5333,39.48,13,0,6.77,MX,1691443983
458,ust'-ilimsk,58.0006,102.6619,11.51,95,70,1.13,RU,1691443983
459,bure,10.7,37.0667,13.17,96,98,1.66,ET,1691443983
460,neka,36.6508,53.299,25.23,76,77,1.49,IR,1691443983
461,minas de marcona,-15.2119,-75.1103,16.54,65,6,5.86,PE,1691443790
462,el alto,-4.2714,-81.2147,24.81,73,95,7.27,PE,1691443983
463,riosucio,5.4216,-75.7032,25.56,79,62,1.22,CO,1691443984
464,yaren,-0.5472,166.916,28.25,70,100,2.23,NR,1691443984
465,satipo,-11.2522,-74.6386,31.93,40,25,1.12,PE,1691443984
466,kargasok,59.0556,80.8572,10.24,95,6,2.6,RU,1691443984
467,mollendo,-17.0231,-72.0147,17.87,80,70,2.71,PE,1691443984
468,natal,-5.795,-35.2094,26.12,83,20,5.14,BR,1691443832
469,mejit,10.2753,170.8646,28.1,79,79,9.08,MH,1691443985
470,santa marta,11.2408,-74.199,28.27,75,79,3.13,CO,1691443985
471,mirny,62.5353,113.9611,15.69,63,100,4.02,RU,1691443985
472,tazacorte,28.629,-17.9293,23.54,85,100,3.09,ES,1691443985
473,donaghadee,54.6333,-5.5333,13.61,86,44,2.51,GB,1691443985
474,ingeniero jacobacci,-41.3427,-69.5448,5.49,54,100,6.4,AR,1691443985
475,shaffa,10.5067,12.3332,21.46,91,68,1.89,NG,1691443986
476,quang ngai,15.1167,108.8,25.63,72,76,2.05,VN,1691443986
477,flin flon,54.7682,-101.865,16.91,67,75,3.6,CA,1691443874
478,vilyuysk,63.7553,121.6247,16.77,68,0,2.56,RU,1691443986
479,sola,-13.8833,167.55,24.82,78,51,6.4,VU,1691443986
480,mora,11.0461,14.1401,24.51,78,95,1.77,CM,1691443967
481,pierre,44.3683,-100.351,24.51,53,0,3.09,US,1691443987
482,pitimbu,-7.4706,-34.8086,25.33,83,2,6.14,BR,1691443987
483,banket,-17.3833,30.4,13.87,63,26,0.97,ZW,1691443987
484,cabo san lucas,22.8909,-109.9124,37.01,65,20,6.17,MX,1691443597
485,kourou,5.1552,-52.6478,29.03,83,40,3.63,GF,1691443895
486,northam,51.0333,-4.2167,14.66,91,98,4.62,GB,1691443987
487,shache,38.4167,77.2406,24.15,40,100,2.61,CN,1691443988
488,sinabang,2.4803,96.3801,24.38,95,100,3.17,ID,1691443770
489,eenhana,-17.4667,16.3333,15.5,31,0,3.3,NA,1691443988
490,vila velha,-20.3297,-40.2925,23.97,85,0,6.69,BR,1691443873
491,dapaong,10.8639,0.205,22.98,92,100,1.95,TG,1691443988
492,margate,51.3813,1.3862,15.94,79,95,1.79,GB,1691443978
493,thunder bay,48.4001,-89.3168,28.95,34,75,6.17,CA,1691443801
494,aleksandrovsk-sakhalinskiy,50.8975,142.1561,19.71,59,46,3.22,RU,1691443901
495,pangody,65.85,74.4859,16.68,66,0,3.93,RU,1691443989
496,murray bridge,-35.1167,139.2667,7.41,86,0,2.02,AU,1691443831
497,kruisfontein,-34.0033,24.7314,12.16,77,0,2.37,ZA,1691443989
498,seven pagodas,12.6264,80.1722,30.03,74,100,6.46,IN,1691443989
499,marsh harbour,26.5412,-77.0636,29.86,73,99,2.25,BS,1691443989
500,xinzhi,36.4989,111.7047,24.05,80,46,0.88,CN,1691443989
501,nenjiang,49.1833,125.2167,15.21,95,100,4.82,CN,1691443898
502,at-bashi,41.1702,75.8106,9.87,72,28,0.51,KG,1691443990
503,cooper's town,26.8667,-77.5167,29.96,65,76,2.53,BS,1691443990
504,sardulgarh,29.7,75.25,30.62,58,12,4.34,IN,1691443990
505,alofi,-19.0595,-169.9187,24.94,88,75,4.63,NU,1691443991
506,wenling,28.3669,121.36,26.11,90,51,1.22,CN,1691443991
507,sint michiel liber,12.15,-68.9833,30.9,74,0,5.14,CW,1691443991
508,itajai,-26.9078,-48.6619,20.93,100,75,2.06,BR,1691443991
509,chernyshevsk,52.5243,117.0174,16.47,58,82,1.51,RU,1691443991
510,glendive,47.1053,-104.7125,27.79,36,20,6.69,US,1691443991
511,ifon,6.9241,5.776,22.28,99,100,1.69,NG,1691443991
512,kande,9.9578,1.0447,22.72,96,100,1.43,TG,1691443992
513,brookings,44.3114,-96.7984,25.66,49,0,2.57,US,1691443992
514,cururupu,-1.8283,-44.8683,24.94,88,49,2.26,BR,1691443992
515,buon ma thuot,12.6667,108.05,21.21,96,67,1.29,VN,1691443992
516,box elder,41.5005,-112.8764,27.37,36,100,1.42,US,1691443992
517,princeville,45.7668,-61.2985,20.73,82,75,5.14,CA,1691443795
518,bridgewater,44.3835,-64.5155,23.15,88,100,1.54,CA,1691443993
519,susuman,62.7833,148.1667,5.34,64,94,1.41,RU,1691443993
520,al ghayzah,16.2079,52.176,26.03,88,100,4.39,YE,1691443993
521,cahors,44.4167,1.3333,14.44,59,3,1.54,FR,1691443993
522,al wajh,26.2455,36.4525,31.97,43,0,2.06,SA,1691443993
523,saucillo,28.0167,-105.2833,40.59,11,1,3.53,MX,1691443995
524,pimentel,-6.8367,-79.9342,24.16,69,40,4.12,PE,1691443995
525,chapada dos guimaraes,-15.4606,-55.7497,29.81,30,9,1.58,BR,1691443995
526,taco pozo,-25.6167,-63.2833,21.51,25,0,3.72,AR,1691443996
527,bafoulabe,13.8065,-10.8321,25.45,89,86,1.9,ML,1691443996
528,bereeda,11.8704,51.0579,31.35,50,43,3.91,SO,1691443996
529,sheldon,43.1811,-95.8561,26.12,63,20,2.57,US,1691443881
530,ola,59.5833,151.2833,11.75,49,48,5.51,RU,1691443996
531,sovetskiy,61.3614,63.5842,16.11,89,25,3.22,RU,1691443996
532,kavaratti,10.5669,72.642,27.92,75,100,8.48,IN,1691443996
533,hilo,19.7297,-155.09,28.85,73,20,5.14,US,1691443997
534,barcelos,41.5388,-8.6151,25.47,41,0,2.59,PT,1691443997
535,essaouira,31.5125,-9.77,22.72,95,20,1.54,MA,1691443997
536,ramadi,33.4226,43.3058,34.99,14,0,7.02,IQ,1691443997
537,novodvinsk,64.4165,40.8122,12.33,87,6,2.87,RU,1691443998
538,maintirano,-18.0667,44.0167,22.24,80,60,4.72,MG,1691443998
539,ormara,25.2088,64.6357,27.18,83,91,7.64,PK,1691443998
540,villa de cos,23.2833,-102.35,32.66,11,3,4.59,MX,1691443998
541,chingirlau,51.095,54.0814,21.36,59,11,3.57,KZ,1691443998
542,cafayate,-26.073,-65.9761,13.58,69,52,3.31,AR,1691443998
543,la pineda,41.0762,1.1852,26.12,72,75,2.06,ES,1691443998
544,mayfield,36.7417,-88.6367,27.91,76,99,4.2,US,1691443909
545,constitucion,-35.3333,-72.4167,12.79,79,100,1.7,CL,1691443999
546,takoradi,4.8845,-1.7554,24.24,89,8,3.93,GH,1691443999
547,oranjemund,-28.55,16.4333,12.63,92,1,4.29,NA,1691443999
548,hayden,47.766,-116.7866,28.12,51,100,6.17,US,1691443891
549,taroa,8.7058,171.2275,28.37,77,77,8.09,MH,1691444000
550,morogoro,-6.8167,37.6667,19.3,76,2,1.34,TZ,1691444000
551,labuan,5.2767,115.2417,26.2,88,20,0.0,MY,1691444000
552,saudarkrokur,65.7461,-19.6394,10.85,74,84,2.02,IS,1691444000
553,ghat,24.9647,10.1728,36.12,9,1,2.65,LY,1691443793
554,baganga,7.5739,126.56,26.06,77,99,1.98,PH,1691444001
555,morshansk,53.4435,41.8107,19.44,64,0,3.14,RU,1691444001
556,kincardine,56.0667,-3.7167,13.84,85,10,3.42,GB,1691444001
557,paris,48.8534,2.3488,18.41,67,0,2.57,FR,1691443202
558,aguilares,-27.4338,-65.6143,16.2,21,41,2.33,AR,1691444001
