City_ID,City,Lat,Lng,Max Temp,Humidity,Cloudiness,Wind Speed,Country,Date
0,adamstown,-25.066,-130.1015,21.34,86,31,10.48,PN,1691497106
1,shiguai,40.7058,110.2856,26.38,39,6,2.43,CN,1691497106
2,puerto natales,-51.7236,-72.4875,-2.82,94,95,1.33,CL,1691497106
3,nagqu,31.5,92.0,14.42,57,100,0.63,CN,1691497107
4,sandnessjoen,66.0217,12.6316,26.29,56,20,7.72,NO,1691497107
5,edinburgh of the seven seas,-37.0676,-12.3116,14.75,85,85,20.63,SH,1691497107
6,san antonio de pale,-1.4014,5.6325,23.34,77,86,5.06,GQ,1691497107
7,yellowknife,62.456,-114.3525,13.29,88,40,3.6,CA,1691496947
8,tapiramuta,-11.8472,-40.7914,17.43,88,100,1.87,BR,1691497108
9,ushuaia,-54.8,-68.3,3.81,75,0,3.09,AR,1691496888
10,hamilton,39.1834,-84.5333,19.57,93,0,1.54,US,1691496930
11,punta arenas,-53.15,-70.9167,1.07,83,100,0.89,CL,1691497026
12,kourou,5.1552,-52.6478,28.03,79,71,3.58,GF,1691497108
13,iqaluit,63.7506,-68.5145,5.85,86,75,3.09,CA,1691497108
14,lerwick,60.1545,-1.1494,13.0,68,99,11.94,GB,1691497109
15,porbandar,21.6422,69.6093,27.97,79,96,9.35,IN,1691497109
16,port lincoln,-34.7333,135.8667,12.05,67,1,4.4,AU,1691497109
17,tiksi,71.6872,128.8694,10.98,67,23,1.22,RU,1691497109
18,papao,-17.75,-149.55,22.82,79,60,5.65,PF,1691497110
19,waitangi,-43.9535,-176.5597,9.9,95,100,1.79,NZ,1691497110
20,broome,42.2506,-75.833,20.37,93,100,5.14,US,1691497110
21,grytviken,-54.2811,-36.5092,-4.73,83,22,4.53,GS,1691497110
22,blackmans bay,-43.0167,147.3167,6.4,90,49,2.27,AU,1691497110
23,hawaiian paradise park,19.5933,-154.9731,24.39,89,100,3.6,US,1691497111
24,tarauaca,-8.1614,-70.7656,25.06,77,22,0.45,BR,1691496864
25,olonkinbyen,70.9221,-8.7187,4.76,87,100,3.61,SJ,1691497112
26,kosh-agach,50.0,88.6667,20.49,43,89,3.51,RU,1691497112
27,byron bay,-28.65,153.6167,14.3,81,24,3.32,AU,1691497005
28,pacific grove,36.6177,-121.9166,13.06,94,100,2.24,US,1691497113
29,holualoa,19.6228,-155.9522,24.91,78,0,4.12,US,1691497113
30,altos,-5.0381,-42.46,29.17,47,40,3.55,BR,1691497113
31,albany,42.6001,-73.9662,22.32,90,83,2.37,US,1691497113
32,longyearbyen,78.2186,15.6401,9.91,62,20,6.17,SJ,1691497114
33,iskateley,67.6803,53.1512,19.52,38,65,2.84,RU,1691497114
34,kavaratti,10.5669,72.642,27.74,79,100,7.09,IN,1691497114
35,port-aux-francais,-49.35,70.2167,1.48,88,94,17.36,TF,1691497114
36,yuzhno-kurilsk,44.0306,145.8556,15.34,99,100,3.71,RU,1691497114
37,ilulissat,69.2167,-51.1,9.01,57,40,2.06,GL,1691497114
38,moranbah,-22.0016,148.0466,14.99,75,0,4.33,AU,1691497056
39,avarua,-21.2078,-159.775,18.03,88,20,1.03,CK,1691497115
40,el rosario,24.2556,-107.1828,26.48,83,3,1.53,MX,1691497115
41,horta,38.5333,-28.6333,24.45,82,20,3.58,PT,1691497115
42,lazaro cardenas,17.9583,-102.2,27.07,85,41,2.03,MX,1691497115
43,lihue,21.9789,-159.3672,26.77,77,100,10.29,US,1691497115
44,happy valley-goose bay,53.3168,-60.3315,14.17,82,100,3.09,CA,1691497116
45,hrebinka,50.1171,32.4361,26.95,30,36,4.56,UA,1691497116
46,veraval,20.9,70.3667,27.76,81,95,8.04,IN,1691497116
47,bredasdorp,-34.5322,20.0403,15.76,64,97,4.5,ZA,1691496873
48,sos'va,59.1766,61.8558,27.66,40,7,3.63,RU,1691497116
49,morden,49.1919,-98.1014,14.79,100,35,0.51,CA,1691496848
50,mil'kovo,55.6078,37.7956,26.3,53,61,1.98,RU,1691497117
51,rantepao,-2.9701,119.8978,19.85,99,86,0.65,ID,1691497117
52,wailua homesteads,22.0669,-159.378,26.44,82,100,10.29,US,1691497117
53,vila velha,-20.3297,-40.2925,23.97,67,0,2.57,BR,1691496983
54,tocopilla,-22.092,-70.1979,17.97,70,25,2.92,CL,1691496952
55,selfoss,63.9331,-20.9971,14.47,78,98,1.46,IS,1691497118
56,bosaso,11.2842,49.1816,35.31,44,41,8.32,SO,1691497118
57,anadyr,64.75,177.4833,10.28,87,75,2.0,RU,1691497118
58,kamaishi,39.2667,141.8833,25.3,96,69,3.7,JP,1691497118
59,qaqortoq,60.7167,-46.0333,7.0,73,4,3.1,GL,1691497118
60,suva,-18.1416,178.4415,22.71,88,40,2.06,FJ,1691497118
61,stanley,54.868,-1.6985,17.51,54,20,7.2,GB,1691496963
62,talnakh,69.4865,88.3972,22.34,40,31,3.65,RU,1691497119
63,baragua,21.6967,-78.6328,27.16,89,17,3.39,CU,1691497119
64,taoudenni,22.6783,-3.9836,44.44,12,1,2.62,ML,1691497119
65,kashmar,35.2383,58.4656,36.23,12,19,1.62,IR,1691497119
66,lodja,-3.4833,23.4333,30.66,45,60,1.05,CD,1691497119
67,zag,46.9441,99.165,22.92,30,96,3.37,MN,1691497120
68,bonthe,7.5264,-12.505,28.0,75,83,4.23,SL,1691497120
69,beira,-19.8436,34.8389,24.05,73,20,5.66,MZ,1691497120
70,inarajan village,13.2736,144.7484,27.08,96,100,3.27,GU,1691497120
71,fale old settlement,-9.3852,-171.2468,27.95,72,57,6.31,TK,1691497120
72,udachny,66.4167,112.4,25.25,38,39,4.48,RU,1691497120
73,valparaiso,-33.0393,-71.6273,15.0,66,100,1.54,CL,1691497120
74,le vauclin,14.5452,-60.8388,30.03,79,0,2.06,MQ,1691497121
75,hasaki,35.7333,140.8333,28.5,88,100,4.76,JP,1691497121
76,mahina,-17.5065,-149.489,22.87,83,75,2.57,PF,1691497121
77,turmalina,-17.2856,-42.73,24.84,42,0,0.33,BR,1691497121
78,isla vista,34.4133,-119.861,18.79,87,100,0.0,US,1691497121
79,margaret river,-33.95,115.0667,13.06,59,60,8.06,AU,1691497122
80,lospalos,-8.5186,127.0025,19.96,92,42,2.78,TL,1691497122
81,prince rupert,54.3161,-130.3201,14.05,100,100,9.77,CA,1691497122
82,magong,23.5654,119.5863,28.19,89,72,4.93,TW,1691497122
83,fortaleza,-3.7227,-38.5247,29.07,61,40,7.72,BR,1691497122
84,college,64.8569,-147.8028,14.99,90,75,3.09,US,1691497122
85,kruisfontein,-34.0033,24.7314,17.16,74,32,8.67,ZA,1691497123
86,fort dodge,42.4975,-94.168,17.79,94,0,0.0,US,1691497017
87,port elizabeth,-33.918,25.5701,19.16,63,40,10.29,ZA,1691497118
88,dudinka,69.4058,86.1778,22.57,48,61,3.55,RU,1691497123
89,baturaja,-4.1333,104.1667,24.29,92,48,0.98,ID,1691497123
90,turuntayevo,52.2,107.6167,23.05,69,98,1.01,RU,1691497123
91,cidreira,-30.1811,-50.2056,16.23,56,68,6.51,BR,1691497123
92,mountain home,43.133,-115.6912,13.01,93,100,2.57,US,1691496885
93,dauphin,51.1494,-100.0502,13.08,94,40,3.09,CA,1691497124
94,luderitz,-26.6481,15.1594,23.65,42,0,8.75,NA,1691497124
95,utrik,11.2278,169.8474,28.29,77,82,6.0,MH,1691497124
96,kattivakkam,13.2167,80.3167,32.05,78,100,5.94,IN,1691497124
97,puerto ayacucho,5.6639,-67.6236,24.6,93,42,1.18,VE,1691497124
98,isafjordur,66.0755,-23.124,8.02,93,20,2.57,IS,1691497125
99,ad dilam,23.9915,47.1627,45.23,5,1,7.64,SA,1691497125
100,bijni,26.4959,90.703,26.5,94,94,2.76,IN,1691497125
101,asau,46.4333,26.4,19.6,61,96,2.02,RO,1691497125
102,ashland,40.8167,-82.2665,17.93,96,62,4.45,US,1691497125
103,papatowai,-46.5619,169.4708,4.56,84,100,4.58,NZ,1691497125
104,dalandzadgad,43.5708,104.425,26.94,32,100,3.7,MN,1691497125
105,ribeira grande,38.5167,-28.7,24.87,78,20,3.58,PT,1691497126
106,arraial do cabo,-22.9661,-42.0278,22.98,88,75,7.72,BR,1691497126
107,bethel,41.3712,-73.414,22.53,87,65,0.45,US,1691497126
108,sao joao da barra,-21.6403,-41.0511,25.05,68,0,9.73,BR,1691497126
109,wuyang,31.9925,116.2472,26.39,75,12,2.68,CN,1691497126
110,mhlume,-26.0333,31.85,26.47,21,0,1.79,SZ,1691497127
111,enewetak,11.3474,162.3373,28.62,79,87,6.18,MH,1691497127
112,pandan,14.0453,124.1694,28.78,78,37,2.61,PH,1691497127
113,fort st. john,56.2499,-120.8529,13.94,94,100,1.54,CA,1691497122
114,yemetsk,63.4721,41.7941,24.86,40,0,3.25,RU,1691497128
115,mili,6.0815,171.735,27.85,77,100,3.45,MH,1691497128
116,port mathurin,-19.6833,63.4167,22.78,71,9,10.51,MU,1691497128
117,sitka,57.0531,-135.33,14.94,88,100,2.57,US,1691497128
118,klyuchi,52.2667,79.1667,26.59,30,12,1.75,RU,1691497128
119,hobyo,5.3505,48.5268,26.72,71,68,14.26,SO,1691497128
120,kutaisi,42.2496,42.6997,32.43,58,0,4.63,GE,1691497129
121,haiku-pauwela,20.9219,-156.3051,25.02,66,0,9.77,US,1691497129
122,seaside,36.6111,-121.8516,13.34,94,100,2.24,US,1691497129
123,roma,43.2128,-75.4557,20.53,96,100,3.6,US,1691496884
124,luxeuil-les-bains,47.8171,6.365,21.85,52,75,4.12,FR,1691497129
125,whitehorse,60.7161,-135.0538,14.43,78,75,1.54,CA,1691496914
126,invercargill,-46.4,168.35,5.57,92,100,1.34,NZ,1691497129
127,karratha,-20.7377,116.8463,22.8,54,0,3.64,AU,1691497130
128,ingeniero jacobacci,-41.3427,-69.5448,1.64,62,42,0.99,AR,1691497130
129,tolanaro,-25.0319,46.9987,23.7,68,33,6.92,MG,1691497130
130,axim,4.8699,-2.2405,26.54,76,66,5.12,GH,1691497130
131,hinton,53.4001,-117.5857,12.33,95,100,1.96,CA,1691497130
132,bilajer,40.5681,50.0378,34.9,38,0,4.12,AZ,1691497130
133,port alfred,-33.5906,26.891,19.54,73,67,4.02,ZA,1691497130
134,gonzales,30.2385,-90.9201,28.38,98,10,0.0,US,1691496941
135,inongo,-1.95,18.2667,24.63,67,75,1.92,CD,1691497131
136,pedernales,18.0384,-71.744,29.34,70,13,0.4,DO,1691497131
137,puerto ayora,-0.7393,-90.3518,24.19,88,100,2.24,EC,1691497131
138,west island,-12.1568,96.8225,25.99,83,40,5.66,CC,1691497131
139,smithers,54.7804,-127.1743,13.18,94,100,2.06,CA,1691497131
140,saipan,15.1355,145.701,28.39,100,75,2.68,MP,1691497132
141,arriaga,16.2333,-93.9,25.13,90,21,2.56,MX,1691497132
142,bandundu,-3.3167,17.3667,36.83,28,72,1.04,CD,1691497132
143,kangding,30.0513,101.9603,17.69,98,89,1.78,CN,1691497132
144,san luis de la loma,17.2706,-100.8939,25.82,84,2,2.02,MX,1691497132
145,atar,20.5169,-13.0499,37.03,28,1,5.14,MR,1691497132
146,yarkovo,57.4028,67.0786,27.37,40,90,2.91,RU,1691497132
147,altai,46.3722,96.2583,23.82,24,93,5.11,MN,1691497133
148,east falmouth,41.5784,-70.5586,24.76,95,100,10.28,US,1691497133
149,labytnangi,66.6572,66.4183,21.06,53,97,5.16,RU,1691497133
150,nadym,65.5333,72.5167,21.14,62,34,10.24,RU,1691497133
151,ambon,-3.6954,128.1814,27.15,95,100,6.66,ID,1691497133
152,ust-nera,64.5667,143.2,10.17,60,60,2.56,RU,1691497133
153,svetlyy,54.675,20.1347,19.98,53,98,8.5,RU,1691497134
154,port saint john's,-31.6229,29.5448,20.65,74,2,8.24,ZA,1691497134
155,phongsali,21.6833,102.1058,17.48,100,100,1.03,LA,1691497134
156,kohat,33.582,71.4493,35.04,33,1,4.28,PK,1691497134
157,constantia,44.1833,28.65,19.38,76,96,7.16,RO,1691496845
158,metlili chaamba,32.2667,3.6333,38.52,10,0,2.06,DZ,1691497134
159,santa ana de yacuma,-13.75,-65.4333,22.97,88,75,7.2,BO,1691497134
160,tionk essil,12.7856,-16.5217,32.03,69,81,4.13,SN,1691497135
161,lodwar,3.1191,35.5973,33.96,27,32,3.82,KE,1691497135
162,karatau,43.1667,70.4667,27.6,35,63,9.67,KZ,1691497135
163,vernon,50.2581,-119.2691,18.75,68,88,1.03,CA,1691497135
164,kodinsk,58.6881,99.1844,21.91,58,4,0.9,RU,1691497136
165,chukhloma,58.7525,42.6825,26.92,37,0,3.68,RU,1691497137
166,rongelap,11.1635,166.8941,28.36,79,53,7.49,MH,1691497137
167,carnarvon,-24.8667,113.6333,20.22,82,21,7.74,AU,1691497137
168,hwange,-18.3693,26.5019,29.73,18,28,2.28,ZW,1691497137
169,hadibu,12.65,54.0333,28.52,63,69,10.13,YE,1691497137
170,rabigh,22.7986,39.0349,36.43,35,1,6.63,SA,1691497138
171,nova vicosa,-17.8919,-39.3719,24.34,73,9,3.2,BR,1691497138
172,mount gambier,-37.8333,140.7667,6.35,86,47,2.63,AU,1691497138
173,kolwezi,-10.7148,25.4667,27.14,21,0,2.41,CD,1691497138
174,vilyuchinsk,52.9306,158.4028,14.15,75,12,4.14,RU,1691497139
175,saint-pierre,-21.3393,55.4781,24.76,64,0,11.83,RE,1691497139
176,timbuktu,16.7735,-3.0074,38.2,27,17,4.98,ML,1691497139
177,iwanai,42.9744,140.5089,23.01,98,100,1.79,JP,1691497139
178,mahibadhoo,3.7833,72.9667,28.42,73,94,4.23,MV,1691497139
179,canutama,-6.5339,-64.3831,25.29,84,29,0.46,BR,1691497139
180,kulhudhuffushi,6.6221,73.07,28.33,76,89,6.02,MV,1691497139
181,sodra sandby,56.5667,16.6167,15.92,75,92,13.34,SE,1691497140
182,thompson,55.7435,-97.8558,10.09,93,100,4.12,CA,1691497140
183,chonchi,-42.6128,-73.8092,10.07,97,100,1.75,CL,1691497140
184,standerton,-26.9337,29.2415,22.56,14,0,1.29,ZA,1691497140
185,bullsbrook,-31.6667,116.0,15.86,82,100,1.54,AU,1691497140
186,biga,40.2281,27.2422,28.92,37,25,9.34,TR,1691497141
187,camalu,30.85,-116.0667,22.28,66,4,1.32,MX,1691497141
188,saldanha,-33.0117,17.9442,19.03,75,23,9.91,ZA,1691497141
189,waingapu,-9.6567,120.2641,23.28,78,16,5.13,ID,1691497141
190,copiapo,-27.3667,-70.3333,16.08,62,24,1.06,CL,1691496911
191,fort mcmurray,56.7268,-111.381,6.77,100,0,2.06,CA,1691496905
192,vila franca do campo,37.7167,-25.4333,24.23,60,14,1.14,PT,1691497142
193,chunskiy,56.0815,99.6342,20.81,77,54,1.51,RU,1691497142
194,taroa,8.7058,171.2275,28.16,74,100,5.57,MH,1691497142
195,knoxville,35.9606,-83.9207,22.14,88,75,3.09,US,1691496853
196,roanoke rapids,36.4615,-77.6542,23.49,100,100,4.63,US,1691497142
197,nouadhibou,20.931,-17.0347,24.99,69,20,7.2,MR,1691497142
198,cockburn town,21.4612,-71.1419,28.6,86,17,7.42,TC,1691497143
199,tura,25.5198,90.2201,24.06,98,100,3.18,IN,1691497143
200,qamdo,31.1667,97.2333,14.2,57,64,2.12,CN,1691497143
201,jamestown,42.097,-79.2353,17.77,91,100,7.2,US,1691496981
202,petropavlovsk-kamchatsky,53.0452,158.6483,13.33,82,0,1.0,RU,1691497144
203,mahanje,-9.9333,35.3333,24.01,40,64,1.08,TZ,1691497144
204,geraldton,-28.7667,114.6,16.23,88,75,3.09,AU,1691497144
205,harper,4.375,-7.7169,25.63,82,87,5.39,LR,1691497075
206,tsiombe,-25.3,45.4833,28.21,37,9,5.05,MG,1691497145
207,edson,53.5835,-116.4356,11.08,100,100,2.06,CA,1691497145
208,lata,40.1629,-8.3327,39.5,16,0,3.56,PT,1691497146
209,mamuju,-2.6748,118.8885,26.28,85,18,0.92,ID,1691497146
210,zouerate,22.7187,-12.4521,33.94,23,2,5.04,MR,1691497146
211,baiti,13.745,-14.7482,30.51,62,35,2.85,SN,1691497146
212,weno,7.4515,151.8468,26.97,89,100,2.57,FM,1691497146
213,crucecita,-28.95,-58.9833,9.6,73,35,5.36,AR,1691497146
214,kone,-21.0595,164.8658,16.59,85,28,2.69,NC,1691497147
215,grand falls-windsor,48.9332,-55.6649,13.61,89,100,3.55,CA,1691497147
216,nemuro,43.3236,145.575,16.85,100,100,1.12,JP,1691497147
217,lanzhou,36.0564,103.7922,29.52,51,15,4.03,CN,1691497147
218,badger,64.8,-147.5333,14.95,91,75,3.09,US,1691497147
219,hermanus,-34.4187,19.2345,16.56,73,95,4.39,ZA,1691497148
220,west end,26.6833,-78.9667,29.99,77,25,5.91,BS,1691497148
221,es castell,39.8795,4.2854,27.38,54,40,4.12,ES,1691497148
222,newnham,-41.3833,147.1333,6.48,81,12,3.6,AU,1691497148
223,minas de marcona,-15.2119,-75.1103,12.36,84,48,2.53,PE,1691497148
224,kailua-kona,19.6406,-155.9956,26.98,79,0,4.12,US,1691497149
225,jianshui,23.6363,102.8264,21.88,92,81,1.26,CN,1691497149
226,bayanhongor,46.7167,100.1167,20.04,36,90,1.9,MN,1691497149
227,kidal,18.4411,1.4078,38.32,23,16,6.63,ML,1691497149
228,cold lake,54.4502,-110.2017,4.97,93,40,0.0,CA,1691497150
229,aasiaat,68.7098,-52.8699,3.46,76,16,2.06,GL,1691497150
230,fuxin,42.0156,121.6589,24.56,68,29,1.77,CN,1691497150
231,mana,5.6592,-53.7767,25.74,84,70,3.15,GF,1691497150
232,phan rang-thap cham,11.5667,108.9833,29.68,63,67,3.64,VN,1691497150
233,urangan,-25.3,152.9,17.55,74,7,6.38,AU,1691497150
234,nikolayevsk-on-amure,53.1406,140.73,16.95,74,94,1.65,RU,1691497150
235,pocone,-16.2567,-56.6228,28.38,29,0,1.58,BR,1691497151
236,kodiak,57.79,-152.4072,11.73,100,100,2.57,US,1691497151
237,colby,39.3958,-101.0524,15.58,94,0,3.13,US,1691496879
238,bilibino,68.0546,166.4372,6.23,51,80,2.4,RU,1691497151
239,solnechnyy,50.7214,136.6319,17.69,49,100,1.46,RU,1691497151
240,pyhajarvi,67.0701,27.2176,27.21,55,3,5.86,FI,1691497151
241,san patricio,28.017,-97.5169,28.81,90,2,3.63,US,1691497152
242,qarazhal,48.0078,70.7903,28.69,34,76,2.24,KZ,1691497152
243,sao gabriel da cachoeira,-0.1303,-67.0892,25.89,94,0,2.06,BR,1691496933
244,szecseny,48.0806,19.5202,20.72,45,74,5.13,HU,1691497152
245,ciudad lazaro cardenas,17.9583,-102.2,27.07,85,41,2.03,MX,1691497115
246,rakops,-21.0167,24.3333,26.01,19,0,3.56,BW,1691497153
247,enugu,6.4402,7.4943,29.66,66,75,4.63,NG,1691496950
248,pemangkat,1.1667,108.9667,27.27,77,38,1.47,ID,1691497153
249,tommot,58.9564,126.2925,16.98,71,8,2.51,RU,1691497153
250,pelabuhanratu,-6.9875,106.5514,25.75,83,28,2.21,ID,1691497153
251,leua,48.2156,18.6071,19.16,45,90,5.32,SK,1691497153
252,limuru,-1.1,36.65,19.55,39,79,2.3,KE,1691497154
253,virginia beach,36.8529,-75.978,25.57,86,0,4.63,US,1691497154
254,halikko,60.4,23.0833,18.81,89,97,8.38,FI,1691497154
255,mola di bari,41.0609,17.0873,27.4,48,53,7.54,IT,1691497154
256,sejenane,37.0572,9.2381,25.53,34,0,5.07,TN,1691497154
257,usogorsk,63.4106,48.6872,24.69,40,20,2.99,RU,1691497154
258,puerto baquerizo moreno,-0.9,-89.6,23.6,75,100,4.72,EC,1691497155
259,fort bragg,35.139,-79.006,24.55,89,100,6.17,US,1691497155
260,okhotsk,59.3833,143.3,10.88,78,30,2.24,RU,1691497155
261,bazarnyy syzgan,53.7512,46.7535,29.44,34,0,3.71,RU,1691497155
262,slave lake,55.2834,-114.769,11.99,82,100,3.09,CA,1691496945
263,kirensk,57.7853,108.1119,23.41,62,27,1.78,RU,1691497155
264,cabo san lucas,22.8909,-109.9124,28.67,79,1,6.3,MX,1691497059
265,nyurba,63.2842,118.3319,21.52,60,0,3.05,RU,1691497156
266,severo-yeniseyskiy,60.3725,93.0408,17.35,79,75,1.6,RU,1691497156
267,rosarito,32.3333,-117.0333,20.54,75,3,1.3,MX,1691497157
268,kokubu-matsuki,31.7333,130.7667,27.74,94,75,6.71,JP,1691497157
269,les cayes,18.2,-73.75,28.57,80,51,1.77,HT,1691497157
270,la junta,37.985,-103.5438,18.37,82,100,5.14,US,1691497157
271,bondoukou,8.0333,-2.8,25.1,83,95,4.08,CI,1691497157
272,labrador city,52.9463,-66.9114,13.95,72,75,3.09,CA,1691497124
273,koryazhma,61.3143,47.1691,24.31,47,1,2.71,RU,1691497158
274,camiri,-20.05,-63.5167,10.88,76,0,0.0,BO,1691497158
275,saint-philippe,-21.3585,55.7679,23.77,77,48,5.14,RE,1691497158
276,bahia de caraquez,-0.6,-80.4167,24.1,87,97,2.66,EC,1691497158
277,anantapur,14.6833,77.6,31.96,43,100,7.36,IN,1691497159
278,basco,20.4487,121.9702,28.66,83,28,12.42,PH,1691497159
279,richards bay,-28.783,32.0377,26.21,42,0,3.68,ZA,1691497159
280,boysun,38.2061,67.1986,31.42,15,41,3.52,UZ,1691497159
281,coahuayana de hidalgo,18.7,-103.6583,25.56,81,16,1.59,MX,1691497159
282,brookings,44.3114,-96.7984,14.14,98,0,0.0,US,1691497160
283,portland,45.5234,-122.6762,17.64,89,0,0.0,US,1691496521
284,melekeok village,7.4957,134.6367,27.31,83,100,0.0,PW,1691497160
285,aurora,39.7294,-104.8319,16.84,83,20,4.63,US,1691496352
286,likhoslavl',57.1275,35.464,21.16,88,94,1.37,RU,1691497160
287,marysville,48.0518,-122.1771,17.42,89,75,0.0,US,1691497136
288,afaahiti,-17.75,-149.2833,21.93,80,73,4.47,PF,1691497160
289,zhaotong,27.3167,103.7167,19.43,87,80,1.86,CN,1691497161
290,turaif,31.6725,38.6637,36.14,9,0,4.12,SA,1691497161
291,dunedin,-45.8742,170.5036,6.0,72,91,5.36,NZ,1691497128
292,tercan,39.7794,40.3925,34.26,16,0,2.26,TR,1691497161
293,tver,56.8619,35.8931,21.64,87,94,1.19,RU,1691497161
294,mount isa,-20.7333,139.5,12.87,62,12,2.06,AU,1691497162
295,sisimiut,66.9395,-53.6735,8.66,62,86,0.84,GL,1691497162
296,muli,2.9167,73.5667,27.97,76,100,3.16,MV,1691497162
297,kenai,60.5544,-151.2583,12.27,95,100,3.6,US,1691497162
298,kingston,17.997,-76.7936,29.02,78,5,0.86,JM,1691497162
299,st. john's,47.5649,-52.7093,14.82,91,100,6.26,CA,1691497163
300,uturoa,-16.7333,-151.4333,25.49,77,82,2.15,PF,1691497163
301,al jawf,29.5,38.75,38.17,11,0,3.03,SA,1691497163
302,patong,7.8961,98.2966,30.57,72,100,5.63,TH,1691497163
303,khanpur,28.6453,70.6567,41.63,23,0,4.42,PK,1691497164
304,deqen,29.9618,90.7188,17.72,69,100,1.36,CN,1691497164
305,talakan,50.3167,130.3667,16.9,93,100,0.88,RU,1691497164
306,nova sintra,14.8667,-24.7167,22.33,73,71,6.86,CV,1691497164
307,hithadhoo,-0.6,73.0833,27.89,70,73,2.01,MV,1691497165
308,inhambane,-23.865,35.3833,24.11,52,12,6.19,MZ,1691497165
309,mata-utu,-13.2816,-176.1745,27.5,77,55,3.14,WF,1691497165
310,codrington,-38.2667,141.9667,7.1,85,19,3.83,AU,1691497165
311,malango,-2.9627,119.9001,19.85,99,86,0.63,ID,1691497165
312,molepolole,-24.4066,25.4951,24.08,10,0,2.92,BW,1691497166
313,freetown,8.484,-13.2299,26.99,81,93,3.28,SL,1691497166
314,tonj,7.2737,28.6822,26.94,81,97,2.05,SS,1691497166
315,sorong,-0.8833,131.25,26.07,83,94,5.94,ID,1691497166
316,masterton,-40.9597,175.6575,2.87,97,91,0.67,NZ,1691497166
317,amga,60.8953,131.9608,13.2,76,46,1.61,RU,1691497167
318,ishigaki,24.3448,124.1572,28.07,89,100,2.57,JP,1691497167
319,ternitz,47.7156,16.0357,23.73,40,94,1.63,AT,1691497167
320,georgetown,5.4112,100.3354,26.64,92,20,1.54,MY,1691497156
321,hilo,19.7297,-155.09,25.34,78,100,3.6,US,1691497093
322,ancud,-41.8697,-73.8203,9.3,92,100,4.3,CL,1691497167
323,luchegorsk,46.4764,134.2569,20.18,84,84,1.32,RU,1691497167
324,ibb,13.9667,44.1833,24.83,48,83,5.09,YE,1691497168
325,wynne,35.2245,-90.7868,21.24,75,38,1.35,US,1691497168
326,araripina,-7.5761,-40.4983,21.85,71,74,5.66,BR,1691497168
327,greenville,35.6127,-77.3663,24.09,93,100,3.6,US,1691497168
328,christchurch,-43.5333,172.6333,5.53,71,69,3.09,NZ,1691497168
329,bac lieu,9.285,105.7244,28.44,75,100,4.83,VN,1691497168
330,necochea,-38.5473,-58.7368,1.89,78,64,5.49,AR,1691497169
331,mont-dore,-22.2833,166.5833,16.99,72,90,3.78,NC,1691497169
332,tongchuanshi,35.0806,109.0897,25.63,69,61,5.12,CN,1691497169
333,cambria,35.5641,-121.0808,14.86,99,47,0.89,US,1691497169
334,san julian,21.0167,-102.1667,13.31,78,1,0.9,MX,1691497169
335,midvagur,62.0511,-7.1939,9.46,76,100,9.26,FO,1691497170
336,arteche,12.2645,125.4048,27.39,79,27,2.44,PH,1691497170
337,ndele,8.4109,20.6473,22.49,92,100,0.85,CF,1691497170
338,riberalta,-10.9833,-66.1,24.11,94,20,0.0,BO,1691497170
339,vadso,70.0744,29.7487,24.49,64,0,3.09,NO,1691497170
340,atafu village,-8.5421,-172.5159,27.97,72,32,6.33,TK,1691497170
341,kiunga,-6.1219,141.2906,22.73,79,67,1.73,PG,1691497170
342,chibougamau,49.9168,-74.3659,14.79,100,100,5.14,CA,1691497171
343,labuan,5.2767,115.2417,27.2,83,20,0.51,MY,1691497171
344,le port,-20.9373,55.2919,24.94,85,23,3.58,RE,1691497171
345,rubio,7.7013,-72.3557,25.47,82,97,2.25,VE,1691497068
346,khandyga,62.6667,135.6,13.35,50,20,0.53,RU,1691497171
347,acapulco de juarez,16.8634,-99.8901,26.9,69,20,3.09,MX,1691496984
348,quellon,-43.1167,-73.6167,9.14,93,100,1.03,CL,1691496957
349,yeniseysk,58.4497,92.1703,21.37,65,85,1.51,RU,1691497172
350,nabire,-3.3667,135.4833,25.47,83,82,1.36,ID,1691497172
351,traiguen,-38.25,-72.6833,4.67,91,29,0.48,CL,1691497172
352,gadzhiyevo,69.2551,33.3362,24.24,61,11,6.55,RU,1691497172
353,moree,-29.4667,149.85,12.79,50,43,1.96,AU,1691497172
354,sejny,54.108,23.347,17.67,50,100,5.79,PL,1691497173
355,elverum,60.8819,11.5623,18.66,91,90,4.8,NO,1691497173
356,santana,-0.0583,-51.1817,29.1,84,40,3.09,BR,1691496919
357,taber,49.8167,-112.1518,14.0,88,80,4.12,CA,1691497173
358,bikenibeu village,1.3673,173.1241,26.98,94,75,1.03,KI,1691497173
359,north bend,43.4065,-124.2243,15.51,100,0,0.0,US,1691497002
360,as sulayyil,20.4607,45.5779,45.14,8,16,3.7,SA,1691497174
361,goundi,9.3627,17.366,28.23,67,100,1.93,TD,1691497174
362,morant bay,17.8815,-76.4093,29.28,80,16,4.08,JM,1691497174
363,langxiang,46.95,128.8833,16.51,99,100,1.1,CN,1691497174
364,pyt-yakh,60.7499,72.8582,24.76,41,68,3.99,RU,1691497174
365,dalnegorsk,44.5604,135.5701,16.79,79,100,0.83,RU,1691497174
366,rudnya,54.947,31.0934,21.23,52,59,4.34,RU,1691497175
367,naini tal,29.3974,79.4469,18.62,86,87,1.82,IN,1691497175
368,auki,-8.7676,160.7034,24.55,90,85,2.99,SB,1691497175
369,nassau,40.7507,-73.5829,23.87,87,100,2.57,US,1691497175
370,vista hermosa de negrete,20.2667,-102.4833,14.62,96,2,0.88,MX,1691497175
371,kigonsera,-10.8,35.05,22.71,39,72,1.52,TZ,1691497175
372,ar ruways,24.1103,52.7306,39.53,30,3,3.67,AE,1691497175
373,undurkhaan,47.3194,110.6556,18.08,63,45,3.15,MN,1691497176
374,puerto armuelles,8.2833,-82.8667,27.27,91,100,1.34,PA,1691497176
375,iwaki,37.05,140.8833,27.23,94,97,2.84,JP,1691497176
376,itoman,26.1247,127.6694,28.01,87,75,8.75,JP,1691497176
377,nuku'alofa,-21.1333,-175.2,23.19,100,48,1.54,TO,1691497176
378,ghanzi,-21.5667,21.7833,25.11,18,0,2.33,BW,1691497177
379,corner brook,48.9667,-57.9484,13.82,81,84,2.25,CA,1691497177
380,tralee,52.2704,-9.7026,16.1,94,100,0.79,IE,1691497177
381,lewistown,40.5992,-77.5714,19.97,82,100,4.12,US,1691497177
382,mossel bay,-34.1831,22.146,14.96,80,90,4.67,ZA,1691497177
383,byron center,42.8122,-85.7228,19.26,97,20,1.54,US,1691497177
384,ta`u,-14.2336,-169.5144,27.18,74,38,4.98,AS,1691497178
385,sur,22.5667,59.5289,39.01,37,8,5.03,OM,1691497178
386,ulladulla,-35.35,150.4667,9.64,87,7,2.13,AU,1691497178
387,westport,41.1415,-73.3579,23.93,96,100,1.79,US,1691497178
388,dili,-8.5586,125.5736,25.85,73,79,2.36,TL,1691497178
389,gorontalo,0.5412,123.0595,24.19,89,13,2.01,ID,1691497178
390,rawson,-43.3002,-65.1023,7.32,50,81,10.68,AR,1691497178
391,fada,9.5667,8.3,23.56,87,99,2.96,NG,1691497179
392,arica,-18.475,-70.3042,18.13,77,100,1.03,CL,1691497153
393,zakamensk,50.3741,103.2863,19.79,87,98,1.17,RU,1691497179
394,washington,47.5001,-120.5015,18.97,78,78,1.92,US,1691496995
395,santa rosa de rio primero,-31.1523,-63.4019,7.46,68,100,1.74,AR,1691497179
396,guarapari,-20.6667,-40.4975,23.27,54,0,5.75,BR,1691497105
397,tuy hoa,13.0833,109.3,29.95,64,72,2.36,VN,1691497179
398,el alto,-4.2714,-81.2147,19.81,79,100,3.75,PE,1691497180
399,juankoski,63.0667,28.35,24.58,69,36,7.03,FI,1691497180
400,ghat,24.9647,10.1728,41.27,9,0,2.97,LY,1691497180
401,monrovia,6.3005,-10.7969,26.49,80,68,3.84,LR,1691497180
402,lebu,-37.6167,-73.65,8.7,64,45,2.13,CL,1691497180
403,basoko,1.2391,23.616,27.99,63,81,1.54,CD,1691497180
404,muynoq,43.7683,59.0214,30.79,35,2,4.96,UZ,1691497181
405,martapura,-3.4167,114.85,27.05,69,26,2.57,ID,1691497181
406,kapuskasing,49.4169,-82.4331,16.05,88,75,2.57,CA,1691497170
407,ulm,48.3984,9.9916,21.77,52,92,6.06,DE,1691496998
408,goure,13.9835,10.2704,28.11,60,97,4.54,NE,1691497181
409,nishinoomote,30.7333,131.0,27.48,94,100,14.69,JP,1691497182
410,tamanrasset,22.785,5.5228,36.95,8,0,7.2,DZ,1691497182
411,taltal,-25.4,-70.4833,15.71,75,46,1.97,CL,1691497182
412,levuka,50.1834,-105.4011,9.85,100,40,2.06,CA,1691497182
413,hassi messaoud,31.6804,6.0729,39.92,13,0,2.57,DZ,1691497182
414,ola,59.5833,151.2833,10.4,61,47,4.49,RU,1691497183
415,manokwari,-0.8667,134.0833,26.74,78,65,1.54,ID,1691497183
416,miyang,24.4042,103.4428,21.25,93,54,1.68,CN,1691497183
417,saint cloud,45.5608,-94.1625,14.48,93,0,0.0,US,1691496903
418,ketchikan,55.3422,-131.6461,14.26,100,100,3.09,US,1691497183
419,prado,-17.3411,-39.2208,24.44,72,16,2.89,BR,1691497183
420,acarau,-2.8856,-40.12,28.87,57,8,7.24,BR,1691497184
421,oranjemund,-28.55,16.4333,16.42,71,35,8.08,NA,1691497184
422,palmas,-10.2128,-48.3603,27.93,47,0,2.06,BR,1691497184
423,marsh harbour,26.5412,-77.0636,29.45,79,23,4.7,BS,1691497184
424,isangel,-19.55,169.2667,20.51,74,58,6.58,VU,1691497184
425,puerto cabezas,14.0351,-83.3888,25.98,94,40,0.0,NI,1691497185
426,xilin hot,43.9667,116.0333,20.2,64,6,4.67,CN,1691497185
427,oyem,1.5995,11.5793,24.27,80,88,0.66,GA,1691497185
428,flying fish cove,-10.4217,105.6791,24.82,83,75,5.14,CX,1691497185
429,uray,60.1247,64.7758,27.66,34,4,3.54,RU,1691497185
430,alice springs,-23.7,133.8833,12.75,47,12,2.57,AU,1691497185
431,port douglas,-16.4833,145.4667,19.92,79,84,4.85,AU,1691496938
432,buala,-8.145,159.5921,25.86,86,86,3.05,SB,1691497186
433,ceeldheer,3.8488,47.1806,28.25,60,52,11.94,SO,1691497186
434,gamba,-2.65,10.0,24.31,66,63,4.45,GA,1691497186
435,walvis bay,-22.9575,14.5053,21.86,45,5,7.88,NA,1691497186
436,turpan,42.9333,89.1667,39.65,17,99,3.49,CN,1691497186
437,birao,10.2849,22.7882,29.42,62,94,2.1,CF,1691497186
438,yenotayevka,47.2456,47.0281,36.79,26,0,4.13,RU,1691497187
439,yaren,-0.5472,166.916,27.56,74,93,2.33,NR,1691497187
440,belyy yar,53.6039,91.3903,26.94,47,0,2.0,RU,1691497187
441,san pedro pochutla,15.7333,-96.4667,25.4,79,4,1.79,MX,1691497187
442,bintulu,3.1667,113.0333,27.23,89,20,0.0,MY,1691497187
443,masindi,1.6744,31.715,30.07,34,94,1.02,UG,1691497187
444,susuman,62.7833,148.1667,4.73,68,34,0.9,RU,1691497188
445,ain sefra,32.75,-0.5833,37.72,7,7,2.35,DZ,1691497188
446,sungailiat,-1.85,106.1333,27.4,79,93,3.99,ID,1691497188
447,okha,53.5739,142.9478,15.75,78,35,1.05,RU,1691497188
448,cacapava do sul,-30.5122,-53.4914,9.2,77,0,4.77,BR,1691497188
449,pirallahi,40.4723,50.333,35.08,57,0,4.4,AZ,1691497188
450,tadine,-21.55,167.8833,18.68,76,54,7.38,NC,1691497189
451,murun-kuren,49.6342,100.1625,19.31,80,98,0.47,MN,1691497189
452,tulun,54.5611,100.5792,19.75,87,75,1.32,RU,1691497189
453,merizo village,13.2658,144.6691,26.85,96,100,3.72,GU,1691497189
454,keflavik,64.0049,-22.5624,12.95,87,75,2.57,IS,1691497189
455,yovon,38.3141,69.0378,35.82,12,3,3.17,TJ,1691497189
456,searcy,35.2506,-91.7363,21.87,95,75,2.06,US,1691497189
457,hashtrud,37.4779,47.0508,31.52,17,1,4.17,IR,1691497190
458,xianning,29.8833,114.2167,29.03,80,39,1.83,CN,1691497190
459,polyarnyy,69.1989,33.4478,23.77,62,9,6.73,RU,1691497190
460,zyryanovsk,49.7386,84.2719,27.28,33,88,4.57,KZ,1691497190
461,kilindoni,-7.9139,39.6668,25.08,77,6,6.82,TZ,1691497190
462,howrah,22.5892,88.3103,30.0,74,75,2.57,IN,1691497190
463,kovdor,67.5662,30.4758,21.16,65,2,4.92,RU,1691497191
464,cuamba,-14.8031,36.5372,29.19,24,22,3.22,MZ,1691497191
465,mawlaik,23.6333,94.4167,25.59,98,100,0.53,MM,1691497191
466,sucre,-19.0333,-65.2627,10.3,78,26,1.54,BO,1691497191
467,palmer,42.1584,-72.3287,23.47,85,75,2.06,US,1691497191
468,ponta delgada,37.7333,-25.6667,24.4,73,20,4.12,PT,1691497191
469,safi,32.1667,-8.8333,30.44,42,60,4.12,MA,1691497191
470,aykhal,66.0,111.5,20.8,44,21,3.82,RU,1691497192
471,navojoa,27.1,-109.4333,28.28,68,80,1.98,MX,1691497192
472,laem sing,12.4816,102.0738,27.02,87,99,3.68,TH,1691497192
473,tofol,5.3248,163.0078,28.32,72,88,2.43,FM,1691497192
474,mirnyy,62.5353,113.9611,20.73,65,75,2.78,RU,1691497192
475,cooper's town,26.8667,-77.5167,29.65,78,34,5.6,BS,1691497192
476,wum,6.3833,10.0667,23.01,81,95,1.59,CM,1691497192
477,morrope,-6.5417,-80.0111,20.06,82,60,2.98,PE,1691497193
478,strathfieldsaye,-36.8,144.3667,5.14,49,0,0.9,AU,1691497193
479,namdrik,5.5994,168.1028,27.98,77,100,3.89,MH,1691497193
480,antsiranana,-12.2787,49.2917,26.75,59,3,7.56,MG,1691497193
481,halmstad,56.6745,12.8568,16.06,82,75,15.43,SE,1691497193
482,jingmen,31.0336,112.2047,29.38,67,51,2.07,CN,1691497193
483,callao,-12.0667,-77.15,21.16,73,100,3.6,PE,1691497139
484,esperanza,19.5847,-70.9849,24.32,72,24,3.43,DO,1691497194
485,bakal,54.9417,58.8083,18.64,76,76,1.51,RU,1691497194
486,rikaze,29.25,88.8833,22.16,36,100,0.18,CN,1691497194
487,jwaneng,-24.6004,24.7303,24.33,10,0,2.46,BW,1691497194
488,derbent,42.0678,48.2899,31.93,49,0,2.87,RU,1691497194
489,nar'yan-mar,67.6713,53.087,19.58,38,66,2.78,RU,1691497194
490,saki,8.6667,3.3833,25.86,76,97,4.12,NG,1691497195
491,port augusta,-32.5,137.7667,11.06,42,0,2.68,AU,1691497195
492,bilovods'k,49.2085,39.5897,32.71,30,0,3.93,UA,1691497195
493,porto novo,6.4965,2.6036,26.9,63,50,6.19,BJ,1691497195
494,khor,47.8861,134.9464,20.55,54,100,1.83,RU,1691497195
495,new ross,52.3967,-6.9367,16.69,91,100,0.13,IE,1691497196
496,akureyri,65.6835,-18.0878,12.96,71,75,3.6,IS,1691497196
497,ontario,34.0633,-117.6509,24.44,38,0,3.09,US,1691496744
498,sanming,26.2486,117.6186,27.92,86,96,1.83,CN,1691497196
499,remire-montjoly,4.9167,-52.2667,28.02,83,100,1.03,GF,1691497196
500,juegang,32.3174,121.1855,29.39,81,67,3.29,CN,1691497196
501,beyneu,45.3167,55.2,34.88,21,0,4.41,KZ,1691497196
502,bizhbulyak,53.6967,54.2642,26.39,35,43,7.95,RU,1691497197
503,swan hill,-35.3378,143.5544,8.5,80,0,1.11,AU,1691497197
504,chalus,36.655,51.4204,31.7,62,20,3.09,IR,1691497197
505,xudat,41.631,48.681,32.57,43,0,3.95,AZ,1691497197
506,puerto real,36.5282,-6.1901,37.07,43,0,5.66,ES,1691497197
507,san luis,-33.295,-66.3356,10.26,26,100,2.36,AR,1691497197
508,livramento do brumado,-13.6431,-41.8406,24.76,61,10,1.85,BR,1691497197
509,taulaga,-11.0553,-171.0883,27.74,73,57,6.45,AS,1691497198
510,rio brilhante,-21.8019,-54.5464,24.12,48,0,2.02,BR,1691497198
511,argo,37.6333,22.7333,32.66,31,0,3.83,GR,1691497198
512,la passe,45.5549,-0.8967,26.13,37,36,3.53,FR,1691497198
513,smirnykh,49.75,142.8333,11.06,97,14,0.98,RU,1691497198
514,cadale,2.7603,46.3222,26.54,71,52,10.51,SO,1691497198
515,yinchuan,38.4681,106.2731,31.53,41,38,7.38,CN,1691497199
516,pangody,65.85,74.4859,22.78,51,34,7.96,RU,1691497199
517,crane,31.3974,-102.3501,26.22,49,88,5.86,US,1691497199
518,redencao,-4.2258,-38.7306,27.52,59,43,3.64,BR,1691497199
519,praya,14.9215,-23.5087,29.3,54,20,7.72,CV,1691497199
520,ciudad bolivar,8.1222,-63.5497,28.19,73,51,1.88,VE,1691497199
521,ritchie,-29.038,24.6028,25.56,14,0,2.78,ZA,1691497199
522,eureka,40.8021,-124.1637,16.34,93,69,0.45,US,1691497200
523,mejit,10.2753,170.8646,28.03,77,52,6.99,MH,1691497200
524,kirkland lake,48.1446,-80.0377,12.16,100,57,0.51,CA,1691497200
525,sidi bennour,32.6524,-8.4277,32.74,40,72,3.97,MA,1691497201
526,toliara,-23.35,43.6667,23.91,64,0,5.51,MG,1691497201
527,onega,63.9061,38.1404,24.82,54,0,4.92,RU,1691497201
528,loango,-4.6719,11.8312,23.48,73,93,3.5,CG,1691497201
529,la ronge,55.1001,-105.2842,11.14,93,75,2.06,CA,1691497201
530,una,20.8167,71.0333,27.97,78,98,7.84,IN,1691497202
531,caconda,-13.7333,15.0667,27.76,15,0,1.63,AO,1691497202
532,dhidhdhoo,6.8833,73.1,28.39,76,99,5.93,MV,1691497202
533,qarqaraly,49.4058,75.4742,18.25,69,100,3.04,KZ,1691497203
534,kalmunai,7.4167,81.8167,31.36,63,78,4.54,LK,1691497203
535,ninghai,29.2892,121.4247,27.01,90,46,1.27,CN,1691497203
536,kupang,-10.1667,123.5833,24.58,69,17,6.6,ID,1691497204
537,ammon,43.4696,-111.9666,14.28,81,100,3.6,US,1691497204
538,cannonvale,-20.2833,148.7,19.66,79,16,6.14,AU,1691497204
539,tomatlan,19.9333,-105.25,24.38,88,15,1.27,MX,1691497204
540,praia da vitoria,38.7333,-27.0667,26.14,73,20,0.9,PT,1691497204
541,winslow,35.0242,-110.6974,22.1,56,0,0.0,US,1691497205
542,rouissat,31.9243,5.3502,41.04,11,0,2.06,DZ,1691497205
543,lake los angeles,34.6125,-117.8281,22.25,12,0,2.06,US,1691497205
544,city of balikpapan,-1.242,116.8942,27.97,78,20,1.54,ID,1691497205
545,bechem,7.0903,-2.025,25.34,89,86,2.43,GH,1691497205
546,belmonte,-15.8631,-38.8828,24.45,75,70,2.24,BR,1691497206
547,beshkent,38.8214,65.6531,37.1,18,0,4.12,UZ,1691497206
548,port blair,11.6667,92.75,29.02,79,40,4.63,IN,1691497206
549,tete,-16.1564,33.5867,29.05,37,40,3.6,MZ,1691497206
550,ust'-ilimsk,58.0006,102.6619,19.47,73,100,1.36,RU,1691497206
551,palafrugell,41.9174,3.1631,30.42,33,2,2.68,ES,1691497207
552,lev tolstoy,53.2134,39.446,29.24,47,11,4.19,RU,1691497207
553,mogocha,53.7333,119.7667,19.57,46,97,0.44,RU,1691497207
554,ankazobe,-18.3167,47.1167,19.98,48,88,1.53,MG,1691497207
555,necocli,8.4234,-76.786,25.89,91,100,4.5,CO,1691497207
556,guiuan,11.0333,125.7247,29.81,76,35,6.01,PH,1691497208
557,carutapera,-1.195,-46.02,27.16,82,76,4.11,BR,1691497208
558,mo i rana,66.3128,14.1428,26.29,61,40,7.2,NO,1691497208
559,sola,-13.8833,167.55,24.83,84,81,8.16,VU,1691497208
560,baoqing,46.3317,132.2111,19.1,90,99,1.68,CN,1691497208
561,jackson,42.4165,-122.8345,16.93,76,0,0.0,US,1691496899
562,igarka,67.4667,86.5833,20.07,54,82,3.86,RU,1691497209
563,mongo,12.1844,18.693,26.59,74,100,2.32,TD,1691497209
564,altay,47.8667,88.1167,19.7,68,99,1.37,CN,1691497209
565,matoury,4.8483,-52.3317,27.98,83,100,1.03,GF,1691497209
566,vinukonda,16.05,79.75,34.44,40,99,6.09,IN,1691497209
567,sunnyside,46.3237,-120.0087,16.67,93,0,1.54,US,1691497210
568,ulanhot,46.0833,122.0833,17.81,87,95,1.5,CN,1691497210
569,paradip garh,20.3167,86.6167,30.55,68,100,5.27,IN,1691497210
570,newman,37.3138,-121.0208,20.7,79,0,0.89,US,1691497210
571,shillington,40.3079,-75.9655,22.12,83,75,3.6,US,1691497210
572,holbrook,40.8123,-73.0784,23.91,94,100,2.57,US,1691496955
573,asaita,11.5636,41.4394,38.96,26,9,3.6,ET,1691497211
574,madang,-5.2246,145.7966,25.37,85,43,1.62,PG,1691497211
575,menongue,-14.6585,17.691,30.45,14,0,1.67,AO,1691497211
